timestamp,rollspeed,pitchspeed,yawspeed,q[0],q[1],q[2],q[3]
38428105,-0.000929156,-0.00030442,-0.00163673,0.999374,-0.00496929,-0.021949,0.0272891
38774839,0.000895189,0.000539594,-0.000902576,0.999371,-0.0049612,-0.021995,0.0273715
38784969,-0.00039343,0.000194173,-0.00248265,0.999371,-0.0049654,-0.0219961,0.0273787
38793899,-0.000709787,0.000312394,-0.00183214,0.999371,-0.0049698,-0.0219937,0.0273848
38805013,-0.000171165,2.48128e-05,-0.000659654,0.99937,-0.00497411,-0.021992,0.0273971
38818093,-0.00114233,-0.000338712,-0.0026727,0.99937,-0.00497734,-0.0219977,0.0274046
38828927,0.00067258,-0.00022765,-0.00226231,0.99937,-0.00497986,-0.0219982,0.0274105
38841774,-0.00124881,0.000727989,-0.00246425,0.99937,-0.00498645,-0.0219987,0.0274127
38849081,-0.000398956,-1.8856e-05,-0.00267089,0.99937,-0.00499117,-0.0219988,0.0274173
38866320,-0.000182966,-0.000237004,-0.00267804,0.999369,-0.00499076,-0.021998,0.0274239
38872973,-0.000278514,-1.1632e-05,-0.00193671,0.999369,-0.00498955,-0.0219982,0.0274283
38884903,-0.000911847,0.000953149,-0.00162422,0.999369,-0.00499656,-0.021998,0.0274378
38896960,-7.52241e-05,-0.000873626,-0.00265727,0.999369,-0.00500087,-0.021999,0.0274451
38905177,-0.000392526,-6.76676e-06,-0.00192,0.999369,-0.00500462,-0.0220004,0.027449
38917312,-0.000698148,-0.000860555,-0.00191639,0.999368,-0.00501362,-0.0220032,0.0274537
38928950,-8.20358e-05,-3.61027e-06,-0.00191455,0.999368,-0.0050154,-0.0220036,0.027461
38941030,0.000679142,-0.000544738,-0.00160656,0.999368,-0.00501352,-0.0220027,0.0274701
38952918,0.00013089,-1.09717e-05,-0.00213902,0.999368,-0.00501503,-0.0220033,0.0274758
38961082,0.000464848,-0.00108897,-0.00255351,0.999368,-0.00501437,-0.022007,0.0274797
38972925,-0.000592137,-6.69505e-06,-0.0016046,0.999367,-0.00501616,-0.0220058,0.027488
38985000,0.000161874,-0.000549516,-0.00183118,0.999367,-0.00502076,-0.022007,0.0274958
38993786,0.00111261,-0.000230844,-0.0021534,0.999367,-0.00501799,-0.0220081,0.0274992
39004954,-0.000578951,-0.000127449,-0.00194715,0.999367,-0.00501853,-0.0220107,0.0275024
39017921,-5.60079e-05,0.000205773,-0.00160876,0.999367,-0.00502012,-0.0220106,0.0275084
39029718,-0.000254937,0.000939107,-0.0016526,0.999367,-0.00501995,-0.0220083,0.0275139
39042084,0.00109682,-0.000764878,-0.00264552,0.999366,-0.00501678,-0.0220093,0.0275182
39052949,-0.00026651,-0.000573653,-0.00267143,0.999366,-0.00501817,-0.0220132,0.0275202
39065769,0.000685865,-0.000220951,-0.00158978,0.999366,-0.00501615,-0.0220157,0.0275278
39078073,-0.000265494,-1.84479e-05,-0.00192258,0.999366,-0.0050136,-0.0220152,0.0275337
39086024,0.000909807,6.63823e-06,-0.000539468,0.999366,-0.00501137,-0.0220154,0.0275434
39097783,-0.000259378,-0.00053995,-0.00114948,0.999365,-0.00501364,-0.0220196,0.0275541
39109818,-0.00143369,0.000538497,-0.000734127,0.999365,-0.00501782,-0.0220195,0.0275635
39117768,5.11787e-05,0.000422588,-0.00158889,0.999365,-0.00501949,-0.0220187,0.0275693
39134548,-6.71942e-05,-2.26877e-05,-0.00264085,0.999364,-0.00501474,-0.0220183,0.0275804
39146339,0.000680106,-1.50758e-06,-0.00157093,0.999364,-0.00501361,-0.0220181,0.0275877
39159677,-0.000589074,-0.00138955,-0.00165734,0.999364,-0.00501526,-0.0220243,0.0275946
39165737,-0.000798701,-0.000752592,-0.00155963,0.999364,-0.00501797,-0.0220264,0.0276003
39178687,3.76494e-05,0.000828613,-0.00232425,0.999364,-0.00501908,-0.022025,0.0276069
39189799,0.00036459,3.90923e-07,-0.00103251,0.999363,-0.00501951,-0.0220276,0.0276145
39199210,-0.000171833,0.000314966,-0.00145948,0.999363,-0.00502138,-0.0220261,0.0276223
39214903,-0.000490893,-0.00106593,-0.00131889,0.999363,-0.00501839,-0.022033,0.0276331
39226594,0.000353836,-0.000344486,-0.0024172,0.999362,-0.00501938,-0.0220351,0.0276413
39237787,-0.000173336,-2.87606e-05,-0.00262574,0.999362,-0.00501844,-0.022038,0.0276456
39250315,-0.000591311,-1.58669e-05,-0.00167429,0.999362,-0.0050261,-0.0220391,0.0276507
39261910,0.000156434,-0.0001192,-0.00157025,0.999362,-0.00502494,-0.0220413,0.0276563
39274088,0.00035912,-0.000330605,-0.00198556,0.999362,-0.00502121,-0.0220442,0.0276657
39281740,-0.000383834,-0.00107817,-0.00185064,0.999361,-0.00502228,-0.0220488,0.0276691
39294420,-0.00114646,-0.000541538,-0.00226711,0.999361,-0.00502644,-0.0220553,0.0276723
39305746,-0.00123967,0.000524315,-0.00153825,0.999361,-0.00503282,-0.022055,0.0276831
39314707,-0.00146582,0.00107064,-0.00151723,0.999361,-0.00503753,-0.0220512,0.0276872
39330511,-0.000805985,-3.24706e-06,-0.00132348,0.999361,-0.00503891,-0.0220487,0.0276974
39342312,-0.000188009,-0.000547037,-0.00248046,0.99936,-0.00504098,-0.0220489,0.0277046
39353806,-0.00081705,-1.95578e-07,-0.00131481,0.99936,-0.00504176,-0.0220521,0.0277107
39367612,-0.000931091,-0.000867273,-0.00245348,0.99936,-0.00504441,-0.0220572,0.0277121
39379345,0.000985901,-1.59089e-05,-0.00208053,0.99936,-0.00503759,-0.0220577,0.0277203
39391306,-0.000606292,-0.000436887,-0.0017266,0.999359,-0.00503776,-0.0220593,0.027728
39397815,0.000351388,-0.000131225,-0.00259498,0.999359,-0.00503726,-0.0220613,0.0277298
39409754,-0.000394766,-0.000134306,-0.00258205,0.999359,-0.00503554,-0.0220606,0.0277319
39422705,-8.52696e-05,0.00104562,-0.00259378,0.999359,-0.00503414,-0.0220557,0.0277332
39433770,0.000133263,-0.000550616,-0.00256847,0.999359,-0.0050313,-0.0220561,0.0277377
39446537,-0.000403539,-0.00108119,-0.00264967,0.999359,-0.00503074,-0.0220599,0.0277405
39455129,0.000778461,0.00032187,-0.00161691,0.999359,-0.0050274,-0.0220603,0.0277448
39466557,0.000555168,-0.000315414,-0.00190873,0.999359,-0.00502098,-0.022062,0.0277509
39479036,0.000669012,0.00019667,-0.00226262,0.999359,-0.00501858,-0.0220634,0.0277559
39490546,0.000653689,-9.32347e-06,-0.00254658,0.999359,-0.00501593,-0.0220638,0.0277582
39502552,-0.00102279,9.8421e-05,-0.00160861,0.999358,-0.00501647,-0.0220648,0.0277652
39510617,-0.00114699,1.91974e-05,-0.00113052,0.999358,-0.00501883,-0.0220658,0.0277719
39523112,-0.000825603,-1.76225e-05,-0.00255312,0.999358,-0.00502246,-0.0220637,0.0277784
39531569,-0.00148383,0.000967265,-0.00198461,0.999358,-0.00502683,-0.0220621,0.0277819
39547465,0.000662235,0.000210305,-0.00201736,0.999358,-0.00502752,-0.0220607,0.0277933
39556685,0.00031943,0.000663927,-0.00144661,0.999358,-0.0050268,-0.0220591,0.0277991
39568313,-0.000940413,0.000229294,-0.00125052,0.999357,-0.00502896,-0.0220557,0.0278075
39579357,0.00064363,-0.000190976,-0.001439,0.999357,-0.00502804,-0.0220544,0.0278167
39590544,-9.87235e-05,0.000320374,-0.00220534,0.999357,-0.00502765,-0.0220546,0.0278229
39603109,-9.55018e-05,-9.37427e-05,-0.00166096,0.999357,-0.0050257,-0.0220551,0.0278272
39614538,0.00140065,1.75412e-05,-0.0014554,0.999357,-0.00502261,-0.0220537,0.0278348
39623266,-0.000529447,0.000653212,-0.00187856,0.999357,-0.0050222,-0.0220503,0.0278394
39634499,-0.000427862,0.000537114,-0.00272094,0.999357,-0.00502564,-0.0220472,0.0278407
39643183,-0.000423464,-0.000446899,-0.00336453,0.999357,-0.00502776,-0.0220456,0.0278406
39655534,-0.000528121,0.000448799,-0.00195555,0.999357,-0.00503034,-0.0220451,0.0278426
39667056,-0.000412131,-0.000533976,-0.00250957,0.999357,-0.00503335,-0.0220414,0.0278448
39678506,0.000421424,-1.10904e-05,-0.00324389,0.999357,-0.00503047,-0.0220412,0.0278447
39691057,-8.06304e-05,0.000538237,-0.00147155,0.999357,-0.00503015,-0.022038,0.02785
39702580,0.000645535,-0.000318099,-0.0022877,0.999356,-0.0050276,-0.0220397,0.027852
39711230,0.000974521,-1.54448e-05,-0.00254108,0.999356,-0.00502358,-0.0220413,0.0278533
39722589,0.000115601,-0.00107142,-0.0025986,0.999356,-0.00502053,-0.0220433,0.0278571
39730604,-0.00447469,0.00709533,0.000207494,0.999356,-0.00503378,-0.0220306,0.027859
39742609,0.000285479,0.00560543,0.0373863,0.99935,-0.00500354,-0.0220438,0.0280845
39754574,-0.00669665,0.0150753,-0.0911485,0.999358,-0.005072,-0.0220328,0.0277917
39767395,-0.0217585,-0.0254868,0.00828845,0.999364,-0.00502249,-0.0220566,0.0275498
39779246,0.0112451,0.0015748,0.0793278,0.999353,-0.00506261,-0.0220352,0.0279772
39788300,-0.0070188,-0.00439685,0.0146464,0.999348,-0.00504811,-0.0220448,0.028132
39798508,0.0132049,0.01316,-0.0878595,0.999359,-0.00499754,-0.022078,0.0277468
39811196,-0.00587112,0.00306908,0.0103158,0.999365,-0.00505238,-0.0220177,0.0275516
39818577,0.00748559,-0.0169972,0.101228,0.999355,-0.00505494,-0.0220586,0.027894
39832075,0.0136532,0.0272018,0.025345,0.999342,-0.0049931,-0.0220344,0.0283674
39839526,0.0240535,0.0160832,-0.0156021,0.999345,-0.00496477,-0.0219819,0.0283299
39851568,-0.0070602,-0.0155988,-0.0368765,0.999346,-0.00509128,-0.0219895,0.0282602
39859949,0.0230982,0.0245005,-0.0830484,0.999356,-0.00505787,-0.0219155,0.0279508
39871379,0.00581284,0.0121311,-0.052246,0.999367,-0.00505803,-0.0218473,0.0276299
39883374,-0.0209673,-0.01452,-0.021076,0.999369,-0.00509168,-0.0219437,0.027446
39891419,0.0229758,-0.005755,0.0580991,0.999365,-0.00508805,-0.0219776,0.0275978
39903895,-0.00345201,-0.00732396,0.0397588,0.999354,-0.0049955,-0.0219183,0.0280314
39915422,0.0260205,-0.0204418,0.0132831,0.999347,-0.00502211,-0.0221648,0.0281038
39929266,-0.0175594,0.00624244,-0.0119222,0.999345,-0.00505369,-0.0222071,0.0281267
39939371,-0.0219027,-0.0249003,-0.0362916,0.999351,-0.00510305,-0.0221494,0.0279396
39947359,0.0209833,0.0161119,-0.018773,0.999354,-0.00503688,-0.0221828,0.0278324
39959492,-0.0550897,0.0545895,0.0879231,0.999347,-0.00506141,-0.0220124,0.0281995
39971397,-0.000971109,0.00199935,0.0354506,0.999339,-0.00506313,-0.0219148,0.0285462
39983401,0.0159989,0.00995111,-0.00394649,0.999337,-0.00501286,-0.0218936,0.0286598
39996219,-0.027763,0.0273712,-0.0781316,0.99935,-0.00513921,-0.0217297,0.0282986
40003482,0.00717042,0.0146137,-0.0987271,0.999361,-0.00514749,-0.0216903,0.0279303
40019928,-0.00308698,0.0119024,-0.0381919,0.999375,-0.00509354,-0.021722,0.0274228
40031522,0.00189726,-0.0238713,0.0274239,0.999373,-0.00508059,-0.0217823,0.0274589
40043938,0.00883004,-0.040513,0.0664043,0.999359,-0.00504151,-0.0219969,0.0278052
40055331,-0.00184293,-0.0269149,0.0622419,0.999343,-0.00505619,-0.0221848,0.0282037
40064319,-0.0114105,-0.0187323,0.0254206,0.999338,-0.005051,-0.0222398,0.0283477
40075329,-0.00536846,0.00888773,-0.0238988,0.999338,-0.00505491,-0.022289,0.0282922
40087486,0.00884721,0.0288793,-0.0750078,0.999352,-0.00500458,-0.0221487,0.027926
40099345,-0.02391,0.0378571,-0.108192,0.999371,-0.00511767,-0.0219532,0.0273801
40111879,-0.00776502,0.0129625,-0.0671244,0.99939,-0.00505838,-0.0218254,0.0267868
40119564,-0.00937128,0.0218787,0.0395123,0.999389,-0.00508278,-0.0217849,0.0268542
40131414,0.00508809,0.00340444,0.105808,0.999374,-0.00508989,-0.0217725,0.0274189
40143420,0.00217188,-0.0315386,0.128295,0.999352,-0.00503773,-0.021872,0.0281557
40151486,0.0039206,-0.00381242,0.0844551,0.999339,-0.00505396,-0.0219413,0.0285549
40163987,-0.00252864,0.00665436,-0.0168623,0.999336,-0.00505605,-0.0219479,0.0286371
40171436,-0.00429175,-0.00826858,-0.0707394,0.999343,-0.0050625,-0.0219564,0.0284003
40185113,-0.0197916,0.0143733,-0.108284,0.999361,-0.005088,-0.0219151,0.0277891
40195320,0.00545804,0.0137525,-0.065803,0.999376,-0.0050787,-0.0218393,0.0272971
40204075,-0.0133183,-0.0142682,-0.0212435,0.999379,-0.00509668,-0.0218785,0.0271629
40215332,0.00416435,-0.0119089,0.0552212,0.999373,-0.0050622,-0.0219207,0.0273373
40224920,0.00199352,-0.0111744,0.0819171,0.999363,-0.00505579,-0.021969,0.027684
40236131,0.00234443,-0.0172231,0.0665852,0.999348,-0.00503573,-0.0220853,0.028129
40248329,-0.00414873,0.00308814,0.0126326,0.999342,-0.00504247,-0.0220949,0.0283259
40256140,-0.00558577,0.014748,-0.0346339,0.999346,-0.00505391,-0.0220386,0.0282308
40269542,-0.00194393,0.0182732,-0.0682772,0.999357,-0.00506248,-0.0219745,0.0278656
40280193,-0.00202277,0.0193418,-0.0582172,0.99937,-0.00506288,-0.021875,0.0274699
40292185,0.00273573,-0.00136695,-0.00729353,0.999376,-0.00506402,-0.0218317,0.0273186
40304412,0.00364165,-0.00878181,0.0396362,0.999371,-0.00505751,-0.0218575,0.0274608
40312266,0.00651906,-0.00714839,0.058787,0.999364,-0.0050514,-0.0218857,0.0276848
40329052,0.00181129,-0.00936008,0.030304,0.999352,-0.0050414,-0.0219769,0.0280426
40340399,0.00150956,0.00052067,-0.0136165,0.999351,-0.00504459,-0.0220202,0.0280583
40353185,-0.00107604,0.00338847,-0.0482031,0.999357,-0.00505074,-0.0220298,0.0278233
40365757,-0.000216767,0.00860894,-0.0461886,0.999366,-0.00504938,-0.0220043,0.0275351
40376253,0.0025728,0.00681427,-0.0147553,0.999371,-0.00505215,-0.021963,0.027368
40384672,-0.00116597,-0.000774778,0.00943092,0.999371,-0.00505322,-0.0219585,0.0273834
40397202,-0.00246921,-0.00368969,0.03742,0.999366,-0.00505255,-0.0219652,0.0275542
40408662,-0.00289034,-0.00863194,0.0350291,0.999359,-0.00505283,-0.0219814,0.0277859
40420981,0.00142609,-0.00503597,0.00649555,0.999356,-0.00504294,-0.0219987,0.0278902
40432668,0.00304368,0.00561775,-0.0219869,0.999359,-0.00504275,-0.0219772,0.0278201
40445266,6.12144e-05,0.00507368,-0.0364979,0.999365,-0.00504846,-0.0219566,0.0276178
40457809,0.00145085,0.00409438,-0.0241681,0.99937,-0.00504066,-0.0219446,0.0274391
40468995,0.000547787,-0.000157367,0.000881305,0.999371,-0.00504117,-0.0219391,0.0273894
40476185,-0.00305516,-0.00532033,0.0169197,0.99937,-0.00504172,-0.021946,0.0274433
40488926,-0.00297797,-0.00742864,0.0244183,0.999365,-0.00503928,-0.0219794,0.0275905
40501114,-0.000371158,-0.00170272,0.0150997,0.999361,-0.00504131,-0.0219997,0.0277111
40512839,-0.00100755,1.99669e-05,-0.00790378,0.999361,-0.00504382,-0.0220053,0.0277157
40524989,-0.00504408,0.000191779,-0.0225437,0.999364,-0.00505675,-0.022001,0.0276048
40536146,-0.0014868,0.00484063,-0.0230849,0.999368,-0.00505268,-0.0219793,0.027466
40549126,0.00720632,0.00912202,-0.00522854,0.99937,-0.00504268,-0.0219576,0.0274051
40556635,-0.00246404,-0.00764105,0.00491184,0.99937,-0.00505149,-0.0219783,0.0274173
40570724,-0.0024924,-0.0054122,0.0177683,0.999367,-0.00504121,-0.0219698,0.0275109
40584665,-0.00161335,-0.00205436,0.00849324,0.999364,-0.00504128,-0.0219734,0.0276314
40596164,-0.00202573,0.000801188,-0.00491222,0.999364,-0.00504174,-0.0219823,0.0276287
40608952,-0.000955335,0.000141194,-0.0186572,0.999367,-0.00504557,-0.0219774,0.0275376
40616977,0.00513083,0.000821582,-0.0160554,0.999368,-0.00504077,-0.0219744,0.0274787
40629135,0.00691997,0.00355032,-0.00568315,0.99937,-0.00504173,-0.021971,0.0274168
40637807,0.000151159,-0.00101979,0.000847148,0.99937,-0.0050424,-0.021973,0.0274216
40649242,0.00289235,0.00234274,0.0108838,0.999368,-0.00503413,-0.0219791,0.027479
40656961,-0.000311006,-0.00818939,0.0107676,0.999366,-0.0050368,-0.0220019,0.0275274
40669651,-0.00386635,-0.00669139,0.0039664,0.999365,-0.00503563,-0.0220035,0.0275736
40680977,0.000698147,0.00251858,-0.00900109,0.999366,-0.00503431,-0.0219955,0.0275526
40693843,0.00313245,0.00803798,-0.0115477,0.999368,-0.00503688,-0.0219839,0.0274945
40706688,0.00216948,0.00194522,-0.0136637,0.99937,-0.00503797,-0.0219911,0.0274176
40717755,0.00478626,-0.00148115,-0.00192916,0.99937,-0.00502383,-0.0219809,0.0274092
40729008,0.00456003,0.00027509,0.00815844,0.999369,-0.00502144,-0.0219789,0.0274433
40741502,-0.000331711,0.000696646,0.00775397,0.999367,-0.00501915,-0.0219921,0.0275006
40751110,0.00103049,-0.00465062,0.00646572,0.999366,-0.00501779,-0.0220152,0.0275329
40761612,0.00188416,-0.00440989,-0.00548209,0.999366,-0.00502044,-0.0220146,0.0275293
40775369,-0.000477293,0.00146964,-0.0100127,0.999367,-0.00502121,-0.0220107,0.0274889
40784949,-0.000888665,0.00202023,-0.00852098,0.999369,-0.00502551,-0.0220088,0.0274335
40798045,-0.00393553,-0.00255504,-0.00248334,0.999369,-0.00502653,-0.0220094,0.0274162
40809072,0.00176254,0.00159812,0.00411845,0.999369,-0.00501434,-0.0219999,0.027437
40822043,0.00282846,-5.99995e-05,0.00671067,0.999368,-0.00500989,-0.0219959,0.0274887
40828957,-0.000380964,-0.000474416,0.0013939,0.999367,-0.00500623,-0.0220016,0.0275069
40844911,-0.00180298,0.00132624,-0.00521574,0.999367,-0.00500263,-0.0219929,0.0275096
40856911,-0.00131138,-0.00481598,-0.00886163,0.999368,-0.00500765,-0.0219991,0.0274645
40865635,0.00117491,0.00258318,-0.00781061,0.999369,-0.00499283,-0.0219849,0.02744
40877010,0.000542901,0.00201101,-0.00259474,0.999369,-0.00500063,-0.0219939,0.0274236
40890876,0.00207546,-0.00106423,0.00470047,0.999369,-0.00498852,-0.0220089,0.0274389
40900967,0.000480724,-0.00185462,0.0022736,0.999368,-0.0049828,-0.0220107,0.0274815
40913144,0.00108426,-0.00174507,0.00132489,0.999367,-0.00497552,-0.0220096,0.0275041
40921858,-0.00223182,0.00498781,-0.00323493,0.999367,-0.00498134,-0.021995,0.0275032
40933921,0.000626913,0.0034782,-0.00536336,0.999368,-0.00498129,-0.0219869,0.0274834
40946725,-0.00174095,0.000737929,-0.00912873,0.999369,-0.00499045,-0.0219783,0.0274483
40956958,-0.00242846,-0.00053344,-0.00176422,0.99937,-0.00498546,-0.0219685,0.0274333
40969867,-0.000201028,0.000912297,0.00108886,0.999369,-0.00498908,-0.0219694,0.0274501
40981026,-0.00111018,-0.00253973,0.00475828,0.999368,-0.00497954,-0.0219789,0.0274777
40994511,-0.000711558,-0.00164483,0.000908062,0.999367,-0.00497776,-0.0219891,0.0275093
41005187,0.00127218,-0.00109531,-0.00411478,0.999367,-0.0049688,-0.0219903,0.0275079
41018585,0.000511102,0.00118515,-0.00757291,0.999368,-0.00496833,-0.0219916,0.0274815
41029727,0.000627466,0.00144501,-0.0056334,0.999369,-0.00497267,-0.0219873,0.0274534
41041807,-0.00180557,-0.00215912,-0.00291236,0.999369,-0.00497094,-0.0219855,0.0274445
41049804,0.000150752,0.00404285,0.0035948,0.999369,-0.00497716,-0.0219725,0.0274588
41065685,-0.000916841,-0.00261995,0.000597255,0.999368,-0.00497427,-0.0219692,0.0275055
41077766,-0.000526519,0.000337679,-0.00113804,0.999367,-0.00496983,-0.0219736,0.0275198
41090773,0.00465835,0.00208456,-0.00523305,0.999368,-0.00496624,-0.0219721,0.0275078
41101855,0.00111014,0.000530815,-0.0082694,0.999369,-0.00497049,-0.0219827,0.0274701
41111100,0.000949045,-0.00278075,-0.00352069,0.999369,-0.00496598,-0.021987,0.0274596
41121961,0.00343296,-0.000400734,-0.00016577,0.999369,-0.00496304,-0.0219904,0.0274628
41135354,-0.0021034,0.00227864,0.000235849,0.999368,-0.00496248,-0.0219964,0.0274761
41145702,0.00334085,0.000493749,0.00214731,0.999367,-0.00495616,-0.0220009,0.0275076
41158786,-0.0023368,-0.00286167,-0.00222516,0.999367,-0.00495632,-0.0219972,0.0275011
41170356,-0.00160261,0.000319279,-0.00259452,0.999368,-0.00495001,-0.0219838,0.0275003
41182087,-2.45871e-05,-0.000271081,-0.00527576,0.999368,-0.00494692,-0.0219788,0.0274875
41189853,-0.000843491,0.00126692,-0.0026371,0.999368,-0.00495526,-0.0219785,0.0274799
41205742,-0.000190338,0.00106494,-0.00241171,0.999368,-0.00495363,-0.021974,0.0274814
41218488,-0.000204657,-0.00197101,5.1735e-06,0.999368,-0.00495581,-0.0219869,0.02749
41226510,0.00183393,-0.000379681,0.000481923,0.999368,-0.00495379,-0.0219872,0.0274992
41238467,-0.000634131,-0.00080053,-0.000215217,0.999367,-0.00495709,-0.021995,0.0275114
41246556,0.00161218,-0.00253627,-0.00129684,0.999367,-0.00495423,-0.0220005,0.0275151
41258335,-0.000119125,-0.00149814,-0.00330107,0.999367,-0.00495329,-0.0220053,0.0275116
41270669,-0.00118972,-0.000565434,-0.00449362,0.999367,-0.00495569,-0.0220051,0.027501
41282315,-0.00118794,0.000523737,-0.00396334,0.999368,-0.00495877,-0.0220001,0.0274863
41297774,-0.000408316,0.0011069,-0.000154653,0.999368,-0.00496144,-0.0219901,0.0274966
41310716,4.45731e-05,0.000881908,-0.000266851,0.999367,-0.00496353,-0.021986,0.0275081
41321827,0.000124237,0.000675218,-0.000263961,0.999367,-0.00496244,-0.0219897,0.0275197
41330669,-0.00138665,-0.000933582,-0.00126659,0.999367,-0.00496423,-0.0219905,0.0275248
41341705,-0.000645073,-0.000763798,-0.00385367,0.999367,-0.00497001,-0.0219913,0.0275227
41355542,0.000171021,0.000420357,-0.00465839,0.999367,-0.00497219,-0.0219925,0.0275075
41366896,0.000427469,0.000960977,-0.00239475,0.999367,-0.00497906,-0.021993,0.0275017
41380460,0.000227052,-0.00100399,0.000433641,0.999367,-0.0049806,-0.0219991,0.0275104
41390645,-0.000308858,-0.00219542,-0.000507038,0.999367,-0.00497788,-0.0220056,0.0275201
41403485,-0.000301999,-0.00197815,-0.000197324,0.999366,-0.00497792,-0.0220077,0.0275307
41414562,-0.000407375,-0.000301241,-0.0013051,0.999366,-0.0049809,-0.0220061,0.0275354
41427670,-7.84802e-06,0.00213122,-0.00281624,0.999366,-0.00497935,-0.0220018,0.0275341
41438557,0.00139392,0.00203405,-0.0018797,0.999367,-0.00497538,-0.0219969,0.0275325
41451419,0.000194251,0.000119371,-0.00234852,0.999367,-0.00497663,-0.0219938,0.0275331
41462493,-0.000414088,-0.000831616,-0.0012808,0.999367,-0.00497954,-0.0219899,0.0275361
41471337,0.00149729,2.521e-05,-0.0013048,0.999367,-0.00497424,-0.0219895,0.0275382
41482565,0.000651975,5.58328e-06,-0.0020587,0.999366,-0.00497263,-0.0219914,0.0275387
41495367,-0.000723422,2.13208e-05,-0.00119356,0.999366,-0.00497534,-0.0219908,0.0275453
41506511,1.13845e-05,-1.2632e-05,-0.0028139,0.999366,-0.00497207,-0.0219916,0.0275417
41519038,-0.000616873,0.000324867,-0.00131209,0.999366,-0.00497231,-0.0219891,0.0275436
41530581,-0.000410739,-2.65473e-06,-0.00237251,0.999366,-0.00497437,-0.0219887,0.0275442
41543063,0.000127371,0.00107058,-0.0016556,0.999367,-0.00497386,-0.021981,0.0275424
41550594,-0.000623933,0.000523043,-0.00217282,0.999367,-0.00497468,-0.0219783,0.0275404
41562791,-0.000414018,4.79796e-05,-0.000205689,0.999367,-0.0049775,-0.0219729,0.0275474
41574618,0.0002358,-6.81179e-05,-0.000347209,0.999366,-0.00497271,-0.0219727,0.0275534
41584674,-0.000743641,-6.46142e-05,-0.00103874,0.999366,-0.00497566,-0.0219706,0.0275559
41594529,-0.000205372,0.000104674,-0.00255938,0.999366,-0.00497331,-0.0219732,0.0275566
41607135,-0.000412182,3.61549e-05,-0.00106206,0.999366,-0.00497371,-0.0219701,0.0275591
41618611,-0.000421863,0.0009664,-0.00235414,0.999367,-0.0049724,-0.0219645,0.0275573
41631306,-0.00106394,0.000550868,-0.00211652,0.999367,-0.00497728,-0.0219591,0.0275553
41643924,-0.000446873,0.00100526,-0.00175539,0.999367,-0.00497786,-0.0219541,0.0275531
41654493,-0.000956175,4.36977e-05,-0.000925143,0.999367,-0.00498077,-0.0219536,0.0275581
41667408,-0.000447758,0.000366151,-0.00111046,0.999367,-0.0049823,-0.0219484,0.0275653
41678481,-0.000214244,0.00111565,-0.000725656,0.999367,-0.00498261,-0.0219412,0.0275705
41691152,-0.000984967,0.000354108,-0.00228066,0.999367,-0.00498667,-0.0219365,0.0275673
41702602,8.74859e-05,-0.000190137,-0.00250846,0.999367,-0.00498463,-0.0219333,0.0275642
41715265,-0.000351779,0.00109128,-0.00282467,0.999367,-0.00498373,-0.0219297,0.0275595
41727513,-0.000431607,3.37441e-05,-0.00165782,0.999367,-0.00498718,-0.0219282,0.0275596
41738681,-0.000754216,-0.000471793,-0.000459225,0.999367,-0.00499162,-0.0219321,0.0275651
41750653,0.000640668,0.000781701,-0.00126762,0.999367,-0.00498914,-0.021931,0.0275705
41762688,-0.000128473,0.000367566,-0.00216453,0.999367,-0.00498738,-0.0219264,0.0275693
41771695,-0.000441649,0.000278965,-0.00310348,0.999367,-0.00498993,-0.0219228,0.027567
41783551,-0.000878594,0.000452905,-0.00291688,0.999367,-0.00498864,-0.0219205,0.0275574
41795359,0.00116325,3.25388e-05,-0.00219283,0.999368,-0.00498545,-0.0219149,0.027555
41808204,4.14927e-06,4.65713e-05,-0.00112758,0.999368,-0.00498317,-0.0219127,0.0275567
41819894,-0.000744394,-6.16538e-05,-0.00122785,0.999368,-0.00498264,-0.0219119,0.0275574
41828248,-0.000335177,5.59327e-05,-0.00110679,0.999368,-0.00498295,-0.0219102,0.0275597
41839318,0.000636176,2.29757e-05,-0.00231087,0.999368,-0.00497872,-0.0219068,0.0275609
41852060,0.00128073,4.32651e-05,-0.00124267,0.999368,-0.00497478,-0.0219027,0.0275617
41863372,0.000533029,4.32648e-05,-0.00123707,0.999368,-0.00497075,-0.0219003,0.0275641
41875940,0.00117965,0.000130306,-0.00231953,0.999368,-0.00496235,-0.021898,0.0275617
41883586,-0.000207013,-0.000505644,-0.0019816,0.999368,-0.00496064,-0.0218989,0.0275612
41895461,0.000643534,0.0008169,-0.000274324,0.999368,-0.00495954,-0.021895,0.027567
41907450,0.00011665,0.000998258,-0.00125318,0.999368,-0.00495507,-0.0218892,0.0275717
41916980,-0.00043085,4.93315e-05,-0.00120798,0.999368,-0.00495535,-0.0218868,0.0275738
41927450,-0.000628696,0.000545505,-0.002311,0.999368,-0.00495858,-0.0218836,0.027573
41936250,8.30789e-05,-0.00103011,-0.00235467,0.999368,-0.00495795,-0.0218849,0.0275703
41947437,-0.00160527,-0.000314103,-0.00301527,0.999368,-0.00496365,-0.0218896,0.0275679
41956147,-0.000651699,0.000351274,-0.00226796,0.999368,-0.00496552,-0.0218878,0.0275655
41968444,0.000852794,3.59672e-05,-0.00143843,0.999368,-0.0049632,-0.0218882,0.0275669
41979853,-0.00202345,4.17586e-05,-0.00119578,0.999368,-0.00497049,-0.021887,0.0275707
41991425,-0.000114197,0.000247772,-0.00174946,0.999368,-0.0049699,-0.0218853,0.0275739
42000037,-0.000534842,0.00012747,-0.00216991,0.999368,-0.00497303,-0.0218824,0.0275738
42011451,0.000316013,0.000235111,-0.00228807,0.999368,-0.00497469,-0.0218785,0.0275729
42020515,0.000515579,0.0002365,-0.00226435,0.999368,-0.00497345,-0.0218758,0.0275723
42032331,-0.000102531,-0.000515833,-0.00249104,0.999368,-0.00496887,-0.0218761,0.0275738
42043980,0.000643956,3.41597e-05,-0.00132769,0.999368,-0.00497201,-0.021875,0.0275753
42051503,0.000540658,0.000467105,-0.000906782,0.999368,-0.0049708,-0.0218737,0.0275812
42063470,9.82168e-05,4.5463e-05,-0.00119111,0.999368,-0.00496736,-0.0218729,0.0275895
42075444,-0.000634321,0.000445305,-0.00196747,0.999368,-0.00496886,-0.0218726,0.0275928
42084459,-0.000439297,-5.99392e-05,-0.00138568,0.999368,-0.00496949,-0.0218737,0.0275946
42095601,-0.000102236,0.00109887,-0.00133413,0.999367,-0.00496704,-0.0218708,0.0275998
42104207,-0.000424136,0.000135945,-0.00173763,0.999367,-0.00496765,-0.0218686,0.0276024
42115320,0.00064659,0.000160045,-0.000463718,0.999367,-0.004965,-0.021867,0.0276102
42128508,0.00115216,0.000571579,-0.00193875,0.999367,-0.00495913,-0.0218658,0.0276175
42140195,0.000109238,-0.000517923,-0.00226273,0.999367,-0.00495675,-0.0218671,0.0276176
42151493,0.000641742,-0.000151457,-0.000119405,0.999367,-0.00495262,-0.0218673,0.0276272
42164141,0.000482455,0.000665789,-0.000695366,0.999367,-0.00494846,-0.021863,0.02764
42176124,-0.000422393,-0.000492962,-0.00149444,0.999366,-0.00494986,-0.0218673,0.027641
42184220,0.000233698,2.19941e-05,-0.00154601,0.999366,-0.00494813,-0.0218681,0.0276429
42196252,-9.68664e-05,-0.000500715,-0.0015085,0.999366,-0.00494439,-0.0218691,0.0276479
42208727,-0.000292924,-8.3853e-05,-0.00122444,0.999366,-0.00494065,-0.0218725,0.0276531
42220200,0.000658708,4.42816e-05,-0.000568595,0.999366,-0.00493784,-0.0218733,0.0276635
42232231,-0.00113988,1.65573e-05,-0.00143917,0.999366,-0.00493568,-0.0218736,0.0276681
42240622,-0.000201489,-0.000490906,-0.0011789,0.999366,-0.00493515,-0.0218759,0.0276707
42252225,-0.000398679,-0.00093774,-0.00120091,0.999365,-0.00493404,-0.021879,0.0276757
42264199,7.40401e-06,9.32347e-06,-0.00268857,0.999365,-0.00493695,-0.0218827,0.0276781
42273273,-0.00039786,1.22369e-05,-0.00175419,0.999365,-0.00493499,-0.021883,0.0276785
42285005,0.00012685,3.09942e-05,-0.00120013,0.999365,-0.0049327,-0.0218835,0.0276834
42296911,-0.000389474,0.000786806,-0.000161062,0.999365,-0.00492928,-0.0218824,0.0276926
42309555,-0.000418224,0.000866918,-0.00226672,0.999365,-0.00493193,-0.0218818,0.0276901
42320742,-0.000931853,-0.000527771,-0.0021642,0.999365,-0.00493476,-0.0218827,0.0276936
42332966,0.000639056,1.84935e-05,-0.00235894,0.999365,-0.00492783,-0.0218842,0.0276872
42348379,0.000659766,0.000862078,-0.00197732,0.999365,-0.00492174,-0.0218787,0.0276892
42356206,0.000429162,0.00150832,-0.00238048,0.999365,-0.00491793,-0.0218745,0.0276873
42369584,-0.000402046,2.76421e-05,-0.00119547,0.999365,-0.00491668,-0.0218744,0.0276922
42380197,0.000342725,2.47946e-05,-0.00119894,0.999365,-0.00491316,-0.0218715,0.0276974
42392297,-0.00114145,-0.00103619,-0.00105816,0.999365,-0.00490952,-0.0218766,0.0277032
42404434,-0.00060544,2.06977e-05,-0.00119873,0.999365,-0.00491054,-0.0218806,0.0277053
42413314,0.000350458,-7.75019e-05,-0.000776879,0.999364,-0.00490784,-0.0218821,0.0277074
42424136,-0.00038823,-0.000205502,-0.00163311,0.999364,-0.0049045,-0.0218822,0.0277101
42433166,0.000151229,-0.00072624,-0.000887009,0.999364,-0.00490035,-0.0218853,0.0277128
42444668,0.000356258,1.77731e-05,-0.00120786,0.999364,-0.00489433,-0.0218863,0.0277173
42457200,0.000343345,2.75462e-05,-0.00118293,0.999364,-0.00489065,-0.0218876,0.027721
42464691,-0.00146188,-0.000202844,-0.00192487,0.999364,-0.0048926,-0.0218875,0.0277213
42481138,-0.000601671,0.000229615,-0.00118919,0.999364,-0.00488737,-0.0218887,0.0277191
42492419,-0.00038925,-0.000498354,-0.000327765,0.999364,-0.0048879,-0.0218891,0.0277265
42504248,0.000136826,0.00097926,-0.00141315,0.999364,-0.0048868,-0.0218881,0.0277333
42516246,-0.000203661,-8.35792e-06,-0.00320107,0.999364,-0.00488434,-0.0218891,0.0277306
42524809,-0.000401525,0.000663296,-0.00128613,0.999364,-0.00488336,-0.0218887,0.0277298
42537143,-0.0006142,2.84209e-05,-0.00116498,0.999364,-0.0048798,-0.0218903,0.0277349
42548260,-0.000403195,-7.44308e-05,-0.00105311,0.999363,-0.00487896,-0.0218922,0.0277424
42560262,0.000128036,3.4549e-05,-0.000948971,0.999363,-0.00487742,-0.0218932,0.0277475
42572194,-0.00104812,2.48894e-05,-0.00167848,0.999363,-0.00487704,-0.0218937,0.0277526
42581633,-0.0010236,-0.000418666,-0.00151327,0.999363,-0.0048807,-0.0218946,0.0277565
42592946,-0.000522446,-8.62367e-05,-0.00209846,0.999363,-0.00488302,-0.0218959,0.0277586
42601084,-7.21947e-05,0.000878861,-0.00150614,0.999363,-0.00488059,-0.0218944,0.0277606
42612970,-0.000821679,-6.29176e-05,-0.00040315,0.999363,-0.00488016,-0.0218965,0.0277687
42624912,-0.0004028,3.18096e-05,-0.00115112,0.999362,-0.00487925,-0.0218969,0.0277776
42633259,-0.000409943,0.000231313,-0.0018913,0.999362,-0.0048785,-0.0218969,0.0277804
42645692,-0.000399004,1.70434e-05,-0.00169246,0.999362,-0.00487573,-0.0218952,0.0277799
42653931,-0.000941408,-0.00103748,-0.00165021,0.999362,-0.00487636,-0.0218992,0.027783
42666341,-0.00157289,1.96251e-05,-0.00167312,0.999362,-0.00488125,-0.0219015,0.0277848
42677122,0.000772794,-0.000392653,-0.00093821,0.999362,-0.00487382,-0.0219055,0.0277912
42685564,-0.000394652,0.000542031,-0.00170227,0.999362,-0.00487285,-0.0219045,0.0277946
42697069,-8.10612e-05,4.50574e-05,-0.000395741,0.999362,-0.00487012,-0.0219014,0.0278019
42709779,-0.00145836,0.00108945,-0.00116704,0.999362,-0.00487129,-0.0218969,0.027808
42720975,-0.000395613,-0.000722009,-0.00113903,0.999361,-0.00487364,-0.0218986,0.0278134
42733507,0.000886884,0.00108195,-0.00130119,0.999361,-0.00486645,-0.0218952,0.0278198
42745611,-0.000487876,-0.000177558,-0.000307666,0.999361,-0.00486447,-0.0218933,0.027825
42756940,-0.0014581,-0.00083511,-0.00166529,0.999361,-0.00486648,-0.0218995,0.0278287
42769181,0.000363631,1.00089e-05,-0.00171376,0.999361,-0.00486679,-0.0219009,0.0278328
42781699,-0.00134293,0.000340181,-0.00116422,0.999361,-0.00486828,-0.0218992,0.0278409
42793815,-0.000177289,0.000104459,-0.00212256,0.999361,-0.00486745,-0.021898,0.0278434
42804919,0.00046869,1.78476e-05,-0.00117876,0.99936,-0.00486178,-0.0219,0.0278472
42817999,0.00046353,6.78841e-06,-0.00191184,0.99936,-0.00485808,-0.0218989,0.0278498
42829046,-0.000162708,0.000320738,-0.00172141,0.99936,-0.0048579,-0.0218969,0.027852
42841719,0.000461668,-0.00104898,-0.00156416,0.99936,-0.0048502,-0.0218988,0.0278565
42850345,0.000367371,6.10994e-06,-0.00171515,0.99936,-0.00484856,-0.0218996,0.0278591
42860956,-0.000271579,0.0001207,-0.00149183,0.99936,-0.00484501,-0.0218969,0.0278606
42873144,-4.94018e-05,0.000330697,-0.00108402,0.99936,-0.00484454,-0.0218955,0.0278688
42882001,-0.000382565,1.96355e-05,-0.00115776,0.99936,-0.0048432,-0.0218954,0.0278726
42894727,0.000684657,-0.00106579,-0.00201471,0.99936,-0.00484102,-0.0218991,0.0278741
42905433,0.000893587,0.000218392,-0.00182274,0.99936,-0.00483461,-0.0218991,0.0278765
42917868,-0.000367522,3.66196e-06,-0.00139159,0.99936,-0.00483473,-0.0218989,0.0278787
42925203,-0.000482813,0.000289933,-0.00321436,0.99936,-0.00483673,-0.0218963,0.0278759
42937784,0.000704905,0.000535736,-0.000888211,0.99936,-0.00483451,-0.0218942,0.0278791
42949877,-0.00144809,0.000977124,-0.00136913,0.99936,-0.00483614,-0.0218912,0.0278827
42958639,0.000587181,0.000325485,-0.00151087,0.99936,-0.00483562,-0.0218872,0.0278857
42971580,0.00132824,0.0010831,-0.00118103,0.99936,-0.0048311,-0.0218832,0.0278883
42981842,-0.000382566,0.000630917,-0.00255447,0.99936,-0.00482931,-0.0218794,0.0278897
42991622,-0.00143661,0.000752396,-0.00201668,0.99936,-0.0048325,-0.021878,0.027889
43002565,-0.000358222,-0.000204192,-0.00138583,0.99936,-0.00483341,-0.0218782,0.0278919
43009801,6.77153e-05,0.000864476,-0.00119437,0.99936,-0.00483199,-0.0218758,0.0278945
43022442,-0.000885558,0.000438241,-0.00118908,0.99936,-0.0048355,-0.0218731,0.0279023
43033763,0.00124412,-0.000533159,-0.00172204,0.999359,-0.00482792,-0.0218747,0.0279059
43043194,0.000166916,7.6564e-06,-0.00169672,0.99936,-0.00482404,-0.0218737,0.0279076
43053804,0.00071064,0.000541423,-0.00119192,0.99936,-0.00481947,-0.0218693,0.0279092
43065851,0.000176534,2.32575e-06,-0.00170471,0.99936,-0.00481711,-0.021866,0.027913
43074060,7.60539e-05,-0.000316536,-0.00149797,0.99936,-0.0048126,-0.0218665,0.0279137
43086540,0.000396269,0.000543697,-0.000658715,0.999359,-0.00481036,-0.0218636,0.0279211
43095604,-0.000346565,0.000549364,-0.000649923,0.999359,-0.00480934,-0.0218616,0.0279247
43106481,0.000824817,0.000226275,-0.00118237,0.999359,-0.00479998,-0.021859,0.0279316
43117801,-0.00141728,0.000230501,-0.000946531,0.999359,-0.00480202,-0.0218572,0.0279348
43125957,-0.00173969,-0.00105499,-0.00124089,0.999359,-0.00480769,-0.0218595,0.0279373
43138205,0.00059467,-0.0019213,-0.00219243,0.999359,-0.00480538,-0.0218655,0.0279372
43150608,-0.000363939,-0.000950559,-0.00156069,0.999359,-0.00480544,-0.0218675,0.0279388
43161796,-0.000254605,0.000523247,-0.00213283,0.999359,-0.00480347,-0.0218623,0.0279413
43175634,0.000392191,0.000744224,-0.00224208,0.999359,-0.00480111,-0.0218606,0.0279422
43186583,0.000720776,3.18931e-06,-0.00149615,0.999359,-0.00479321,-0.0218569,0.0279455
43197807,0.000286867,-0.000858843,-0.00221923,0.999359,-0.00478762,-0.0218579,0.0279481
43210224,-1.43421e-05,-0.000209544,-0.00117659,0.999359,-0.00478062,-0.0218557,0.0279533
43221811,-0.00140837,0.000315712,-0.00223535,0.999359,-0.00478286,-0.0218527,0.0279543
43233734,-0.000342429,-0.000109454,-0.00169963,0.999359,-0.00478259,-0.0218524,0.0279566
43242743,0.000727592,0.000120736,-0.000636376,0.999359,-0.0047771,-0.0218495,0.0279598
43253801,0.000939779,0.000721838,-0.00215432,0.999359,-0.00476825,-0.0218455,0.0279639
43261790,-1.83336e-05,-0.000543392,-0.00137959,0.999359,-0.00476593,-0.0218449,0.0279668
43274743,-0.000450037,-0.000540262,-0.00222166,0.999359,-0.00476645,-0.0218442,0.0279673
43286559,0.000410792,0.000421125,-0.00149527,0.999359,-0.00476232,-0.0218447,0.0279688
43297774,8.71513e-05,0.000538816,-0.00116985,0.999359,-0.00475966,-0.0218389,0.0279732
43309850,-0.000552889,8.1067e-06,-0.0011561,0.999359,-0.00475823,-0.0218349,0.0279825
43318636,0.000717501,0.000755203,-0.00148451,0.999359,-0.00475488,-0.0218312,0.0279847
43330849,0.000616712,-0.000726352,-0.000718315,0.999359,-0.00475023,-0.0218316,0.0279883
43342249,-0.000127202,-2.98442e-06,-0.00168982,0.999359,-0.00474889,-0.02183,0.0279917
43349971,0.000190533,-0.000109445,-0.00169188,0.999358,-0.00474623,-0.0218294,0.0279951
43367640,-0.000158868,0.000442816,-0.00116995,0.999358,-0.00474299,-0.021823,0.0280009
43378546,0.000731865,0.00138555,-0.00119254,0.999359,-0.00473631,-0.0218135,0.0280056
43391139,0.000725113,0.000324808,-0.00106206,0.999359,-0.00472853,-0.0218031,0.02801
43398517,0.000612803,0.000952765,-0.00160392,0.999359,-0.00472389,-0.0218001,0.0280133
43410581,0.000491916,-0.000851511,-0.00197224,0.999359,-0.00471825,-0.0218039,0.0280158
43423424,0.000500265,3.51807e-06,-0.00146936,0.999359,-0.00471537,-0.0218027,0.0280172
43435289,-0.00245706,0.000738361,-0.0013554,0.999358,-0.00471973,-0.0217979,0.0280236
43447027,-0.000356219,-1.94646e-07,-0.00187261,0.999358,-0.00472241,-0.0217955,0.0280257
43459674,-0.000230796,5.3572e-06,-0.00114137,0.999358,-0.0047173,-0.0217946,0.0280298
43470610,0.000603062,-0.000535604,-0.00187028,0.999358,-0.00471467,-0.021793,0.0280328
43482571,-0.000344491,-0.000518034,-0.0010121,0.999358,-0.00471286,-0.0217948,0.0280403
43491087,-0.000354901,2.75904e-05,-0.000578316,0.999358,-0.00471296,-0.0217947,0.0280459
43502547,-0.000130719,0.000534003,-0.00146561,0.999358,-0.00471286,-0.0217923,0.0280505
43511360,-0.000373954,0.000756463,-0.00217257,0.999358,-0.00471272,-0.0217893,0.0280512
43522629,-3.15339e-05,-7.38446e-06,-0.00219021,0.999358,-0.00470877,-0.0217892,0.0280523
43535517,-0.00112159,0.000232846,-0.00161157,0.999358,-0.0047111,-0.0217882,0.0280565
43546568,-0.00131343,-0.000199368,-0.00109845,0.999358,-0.00471177,-0.0217847,0.028063
43559284,0.00122536,-0.000493184,-0.000534462,0.999357,-0.00470345,-0.0217873,0.0280709
43566530,-0.00057556,0.000124365,-0.00109552,0.999357,-0.00470381,-0.0217854,0.0280755
43579442,-0.0003854,0.00057042,-0.00095657,0.999357,-0.00470192,-0.0217823,0.0280826
43590640,-0.000253353,0.000434285,-0.00108953,0.999357,-0.00470039,-0.0217811,0.0280898
43598644,-0.000261811,0.000556357,-0.00109153,0.999357,-0.0046993,-0.021779,0.0280951
43611366,-0.000378317,1.14215e-05,-0.00193045,0.999357,-0.00470162,-0.0217774,0.0280965
43622706,5.64717e-05,2.58964e-05,-0.001076,0.999357,-0.00470088,-0.0217773,0.0281049
43630642,-4.9619e-05,2.92135e-05,-0.000961402,0.999357,-0.00470062,-0.0217783,0.0281109
43643255,0.000368838,2.86601e-05,-0.00107,0.999356,-0.00469857,-0.0217783,0.0281179
43651114,0.000374291,0.000546221,-0.00162815,0.999356,-0.0046979,-0.0217757,0.0281214
43662505,-4.75598e-05,0.000324379,-0.00214881,0.999356,-0.00469812,-0.0217737,0.0281236
43675350,0.000157022,0.000228968,-0.00161703,0.999356,-0.00469778,-0.0217735,0.0281256
43682598,0.000695674,-0.000746366,-0.00214681,0.999356,-0.00469585,-0.0217741,0.0281255
43694673,0.000169926,0.000544011,-0.00110025,0.999356,-0.00469281,-0.0217739,0.0281278
43703119,-0.000142086,1.20993e-05,-0.00109975,0.999356,-0.00469219,-0.021774,0.0281311
43720186,-0.000689278,0.000554627,-0.00108023,0.999356,-0.00469485,-0.021776,0.0281377
43728498,-0.000471627,0.000739505,-0.00216518,0.999356,-0.00469911,-0.0217734,0.0281387
43740269,-0.000359111,-0.000728113,-0.00107137,0.999356,-0.00470022,-0.0217728,0.0281404
43755382,0.00134977,9.65572e-06,-0.00111213,0.999356,-0.00469296,-0.0217766,0.0281456
43764807,0.000697837,1.26113e-05,-0.0015,0.999356,-0.00468918,-0.0217771,0.0281471
43775393,-1.91124e-05,0.000119434,-0.00110929,0.999355,-0.00468428,-0.0217758,0.0281522
43783381,0.000729959,1.3185e-05,-0.00111311,0.999355,-0.00467935,-0.021775,0.0281553
43795302,0.00145824,0.000327925,-0.001851,0.999356,-0.00467072,-0.0217693,0.0281571
43808311,0.000378049,-0.000105257,-0.0026695,0.999356,-0.00466781,-0.0217677,0.0281568
43819415,0.000928666,1.23864e-05,-0.00162166,0.999356,-0.00466021,-0.0217661,0.0281587
43836877,0.000712805,0.000550235,-0.00140979,0.999355,-0.00465235,-0.0217644,0.0281659
43848441,0.000377279,2.15292e-05,-0.00179912,0.999355,-0.00464842,-0.0217624,0.028169
43860073,0.000288589,-0.000197207,-0.00180226,0.999355,-0.0046442,-0.0217598,0.0281726
43867499,0.000387181,9.26224e-06,-0.00213391,0.999356,-0.00464196,-0.0217589,0.0281719
43883930,0.000709418,3.35102e-05,-0.000849858,0.999355,-0.00463685,-0.0217537,0.0281804
43895395,0.000378771,-0.000693838,-0.000597717,0.999355,-0.00463481,-0.0217503,0.0281865
43904129,-0.00121039,-0.000524358,-0.00210888,0.999355,-0.00463647,-0.0217515,0.0281891
43915377,0.000688403,-0.000383337,-0.00101808,0.999355,-0.00463176,-0.021753,0.0281947
43927615,0.000706174,3.12373e-05,-0.00105524,0.999355,-0.00462512,-0.0217542,0.0282014
43939499,-0.000372725,0.000143119,-0.00124191,0.999355,-0.00462111,-0.0217513,0.0282109
43951394,-0.000148204,-0.000735127,-0.00210569,0.999355,-0.00461944,-0.0217517,0.0282127
43959939,0.000694212,3.48873e-05,-0.00103876,0.999355,-0.00461441,-0.0217516,0.028216
43971407,0.000711892,0.00108567,-0.00108667,0.999355,-0.00460975,-0.0217431,0.0282202
43979352,0.000163687,0.000685189,-7.42883e-05,0.999355,-0.00460716,-0.021739,0.028226
43991521,-0.00143079,8.51904e-06,-0.00210329,0.999354,-0.00461086,-0.0217378,0.0282301
44003439,0.0001496,4.45214e-05,-0.00100845,0.999354,-0.00460949,-0.0217375,0.0282352
44011934,-0.00142508,-0.00102396,-0.000483058,0.999354,-0.00461197,-0.021741,0.0282405
44024699,-0.000591489,0.000251797,-0.00111775,0.999354,-0.00461481,-0.0217414,0.028249
44035378,-0.000362941,0.000897595,-0.000294416,0.999354,-0.00461634,-0.0217377,0.0282554
44043329,5.42763e-05,0.000461184,-0.000929351,0.999354,-0.004614,-0.0217359,0.0282579
44055358,0.00038618,-0.00103583,-0.00102286,0.999353,-0.00461362,-0.0217391,0.0282648
44063343,0.000589056,-9.61334e-05,-0.00210464,0.999353,-0.00461051,-0.0217407,0.0282654
44076082,-0.000364531,3.10796e-05,-0.00102722,0.999353,-0.00460759,-0.0217393,0.0282687
44088291,-0.00110899,0.000576587,-0.000604323,0.999353,-0.0046095,-0.0217373,0.0282765
44100800,0.000166891,-0.000713857,-0.00101006,0.999353,-0.004606,-0.0217403,0.0282834
44111961,0.000267233,8.83639e-06,-0.00210317,0.999353,-0.00460737,-0.0217397,0.028287
44120950,3.82494e-06,0.000833703,-0.000603555,0.999353,-0.00460791,-0.0217367,0.0282927
44132898,0.000175543,-0.00181002,-0.00197694,0.999353,-0.00460466,-0.0217409,0.0282963
44140954,-0.000353068,-0.000398879,-0.00103085,0.999352,-0.00460529,-0.0217432,0.0282997
44152234,-4.4049e-05,0.000642088,-0.0020087,0.999352,-0.00460527,-0.0217443,0.0282993
44164953,-0.000244958,-0.000417186,-0.00135804,0.999352,-0.00460383,-0.0217456,0.0283052
44172663,0.000283394,-0.000431208,-0.0020036,0.999352,-0.0046007,-0.0217487,0.0283065
44184139,0.000390822,-0.000528811,-0.00157353,0.999352,-0.00459971,-0.021754,0.0283067
44196804,-0.000135959,0.000200078,-0.0021237,0.999352,-0.00460084,-0.0217544,0.0283057
44208139,-0.000356851,-0.000774218,-0.0029534,0.999352,-0.0046006,-0.0217589,0.0283026
44220898,-0.000343474,1.69985e-05,-0.000613821,0.999352,-0.00459854,-0.0217575,0.0283032
44228150,0.000504659,9.74396e-06,-0.00104998,0.999352,-0.00459579,-0.0217585,0.0283067
44240152,0.000719508,-1.32932e-05,-0.00202452,0.999352,-0.00459293,-0.02176,0.0283107
44252781,0.000173342,-0.000537092,-0.00209326,0.999352,-0.00459055,-0.0217646,0.0283145
44264142,-0.000333014,-4.42844e-07,-0.00106403,0.999352,-0.0045888,-0.0217666,0.028316
44276644,-0.000335821,-0.00072967,-0.00050372,0.999351,-0.00458625,-0.0217694,0.0283246
44284169,-0.000342248,-0.000319899,-0.00136127,0.999351,-0.00458633,-0.021774,0.0283258
44296312,0.000179357,1.48162e-05,-0.00102912,0.999351,-0.00458623,-0.0217736,0.0283311
44308165,-0.000773504,-0.000852397,-0.00155516,0.999351,-0.00458444,-0.0217795,0.0283339
44317153,0.000798925,0.000212585,-0.00125384,0.999351,-0.00458325,-0.0217804,0.028336
44328157,0.000607883,5.56954e-06,-0.00135815,0.999351,-0.00458104,-0.0217797,0.028338
44336889,-0.000244476,1.07479e-05,-0.0011325,0.999351,-0.00457934,-0.0217809,0.0283397
44348824,0.00018824,-0.000523742,-0.000819774,0.99935,-0.00458063,-0.0217844,0.0283437
44360226,0.000178444,0.000416365,-0.00210553,0.99935,-0.00457397,-0.0217876,0.0283447
44369959,-0.000658883,0.000743555,-0.00169743,0.99935,-0.00457704,-0.0217875,0.0283449
44382303,-0.000140479,8.42568e-06,-0.00155953,0.99935,-0.00457792,-0.0217882,0.0283451
44396178,0.000390639,-0.000746788,-0.00209304,0.99935,-0.0045739,-0.0217904,0.0283469
44408131,0.00104355,2.11676e-05,-0.000508861,0.99935,-0.00456609,-0.0217895,0.0283527
44420193,0.000711102,-4.23449e-06,-0.00209761,0.99935,-0.0045614,-0.0217889,0.0283531
44428180,0.000192651,-0.000221523,-0.00199989,0.99935,-0.00455921,-0.0217914,0.0283523
44440176,0.000714744,0.0003378,-0.00102916,0.99935,-0.00455796,-0.0217902,0.0283579
44448192,0.00040235,-7.96164e-06,-0.00210102,0.99935,-0.00455706,-0.0217906,0.0283582
44460255,-3.99093e-05,-0.00052699,-0.00195826,0.99935,-0.00455096,-0.0217921,0.0283605
44472669,-2.93872e-05,0.000104976,-0.0020909,0.99935,-0.00454917,-0.0217921,0.0283615
44480215,-0.000354276,0.00095439,-0.00210427,0.99935,-0.00455016,-0.0217905,0.0283615
44496151,-2.82843e-05,1.6269e-05,-0.00101138,0.99935,-0.0045509,-0.0217887,0.0283663
44504126,0.000180349,0.000528155,-0.00210337,0.99935,-0.00455082,-0.0217874,0.0283662
44516147,0.00124712,0.000125389,-0.0010178,0.99935,-0.00454355,-0.0217839,0.0283726
44528813,-0.000676184,0.000774123,-0.000793903,0.99935,-0.00454385,-0.0217826,0.0283779
44536918,0.000818779,-0.00104171,-0.000985802,0.999349,-0.0045425,-0.0217831,0.0283831
44549910,0.000176847,9.73581e-06,-0.00143315,0.999349,-0.00454101,-0.0217836,0.0283885
44557000,0.000183224,-0.000837296,-0.00109948,0.999349,-0.00453877,-0.0217852,0.0283911
44569744,0.00123372,-0.000736988,-0.00110431,0.999349,-0.00453393,-0.0217907,0.0283972
44580987,0.000171684,-0.000860586,-0.00206695,0.999349,-0.00453197,-0.0217973,0.0283976
44589067,0.00125566,0.000120066,-0.000596446,0.999349,-0.00452831,-0.0217959,0.028402
44601922,7.53659e-05,3.87593e-06,-0.00153779,0.999349,-0.00452364,-0.0217983,0.028408
44613869,-0.000877305,0.000540102,-0.00101792,0.999348,-0.00452837,-0.0217966,0.0284141
44624947,-0.000352587,-1.04166e-05,-0.00207696,0.999348,-0.00453262,-0.0217976,0.0284172
44637890,-0.000138689,-1.19209e-07,-0.00164677,0.999348,-0.00453308,-0.0218002,0.0284188
44648963,0.000709872,-0.000212708,-0.00175051,0.999348,-0.00452832,-0.0218006,0.0284226
44661486,0.000722604,-0.000529843,-0.001013,0.999348,-0.00452496,-0.021802,0.0284299
44669667,0.000722534,5.4054e-06,-0.00102203,0.999348,-0.00452222,-0.0218029,0.0284342
44681608,0.000720384,0.000332856,-0.00102402,0.999348,-0.00451892,-0.0218018,0.0284394
44692961,-1.1205e-05,-0.000852912,-0.00111838,0.999347,-0.00451849,-0.0218065,0.0284443
44701080,0.000721831,0.000197593,-0.00177809,0.999347,-0.00451698,-0.0218052,0.0284468
44713144,-0.000346823,-0.000549588,-0.0020702,0.999347,-0.004514,-0.0218039,0.0284477
44725214,-0.00056073,-0.000211557,-0.00132256,0.999347,-0.00451649,-0.0218047,0.0284486
44736982,0.000196311,-0.000122966,-0.00209106,0.999347,-0.00451671,-0.0218066,0.0284501
44749076,-0.000334147,-9.33651e-08,-0.00102093,0.999347,-0.00451589,-0.0218059,0.0284531
44757053,0.000208332,-6.9181e-06,-0.00103766,0.999347,-0.00451627,-0.0218067,0.0284566
44768974,-0.000543553,-0.000331166,-0.00155062,0.999347,-0.00451676,-0.0218089,0.0284591
44781479,0.000220504,-0.000964776,-0.00102264,0.999347,-0.00451792,-0.0218131,0.0284647
44792923,0.000737872,0.000933374,-0.00212296,0.999347,-0.00451348,-0.021814,0.0284667
44806527,0.000633477,-0.000432651,-0.00134429,0.999346,-0.00451018,-0.021818,0.028469
44817870,0.000204702,-2.81439e-05,-0.00199653,0.999346,-0.00450592,-0.0218183,0.0284737
44829735,-0.000968874,-1.56905e-06,-0.00100841,0.999346,-0.00451075,-0.0218189,0.028479
44836919,-0.000216651,-0.000852826,-0.00099968,0.999346,-0.00450942,-0.0218214,0.0284826
44848923,8.51811e-06,-3.10196e-05,-0.00199909,0.999346,-0.00450527,-0.0218223,0.0284864
44860946,0.000525561,-0.000745952,-0.00101154,0.999346,-0.00450306,-0.0218273,0.0284877
44869075,0.000850202,-2.92922e-05,-0.00210571,0.999346,-0.00449789,-0.0218287,0.0284878
44880978,-0.000224894,-0.000226022,-0.00154041,0.999346,-0.00449356,-0.0218294,0.0284887
44888982,-0.000846707,-1.33887e-05,-0.00134801,0.999346,-0.0044956,-0.0218298,0.0284901
44901010,-0.000332591,-0.00106158,-0.000981349,0.999345,-0.0044967,-0.021835,0.0284929
44912948,0.000104558,9.86271e-07,-0.000698289,0.999345,-0.00449513,-0.0218375,0.0284991
44920949,-0.000118093,-0.000321875,-0.00110986,0.999345,-0.00449515,-0.0218388,0.0285019
44933719,0.000728941,-1.71126e-05,-0.00197016,0.999345,-0.00449107,-0.0218399,0.0285044
44943450,0.000899547,-9.76934e-06,-0.00162994,0.999345,-0.00448901,-0.0218407,0.0285047
44954282,0.000735082,0.000618387,-0.00209603,0.999345,-0.00448576,-0.0218421,0.0285042
44966606,-0.00064328,-0.000538233,-0.00110146,0.999345,-0.00448398,-0.0218458,0.0285046
44974415,-0.000118667,8.68845e-05,-0.00196426,0.999345,-0.00448358,-0.021845,0.0285059
44986667,-0.000952357,-2.32668e-06,-0.000588091,0.999345,-0.00448531,-0.0218417,0.0285108
44997751,0.000731203,-0.000750082,-0.000987748,0.999345,-0.00448411,-0.0218423,0.0285188
45006761,-0.000341015,-0.00033331,-0.00205115,0.999345,-0.00448434,-0.0218462,0.0285181
45018733,-0.000229162,-0.00160541,-0.00160617,0.999344,-0.00448207,-0.0218516,0.0285203
45025787,0.00019178,-1.89322e-05,-0.00206468,0.999344,-0.00448012,-0.0218527,0.0285197
45037773,0.000966383,-0.00031965,-0.000479594,0.999344,-0.00447423,-0.0218526,0.0285262
45050054,-2.19373e-06,-0.00085726,-0.000994162,0.999344,-0.00447135,-0.0218576,0.0285335
45061726,-0.000111094,-0.000429616,-0.000996817,0.999344,-0.00447197,-0.0218619,0.0285399
45075352,-0.000330776,-0.000429335,-0.00119877,0.999343,-0.00446995,-0.0218623,0.0285459
45087042,0.000517755,-0.000317444,-0.000986944,0.999343,-0.00446707,-0.0218659,0.0285488
45101723,-0.000336924,0.000423018,-0.0014171,0.999343,-0.00446946,-0.0218651,0.0285554
45111049,-0.000851115,1.36334e-05,7.06823e-05,0.999343,-0.0044712,-0.0218652,0.0285624
45121768,0.000732662,0.000413394,-0.00163856,0.999343,-0.00446696,-0.0218663,0.0285625
45138053,0.000199723,-0.00106491,-0.00097374,0.999343,-0.0044579,-0.0218714,0.0285723
45149754,0.000637425,-0.00107535,-0.00119973,0.999342,-0.00445483,-0.0218794,0.0285742
45161853,-0.000548173,-9.91137e-06,-0.0017187,0.999342,-0.00445511,-0.0218809,0.0285742
45170064,-0.000130582,-0.000335654,-0.00247264,0.999342,-0.00445753,-0.0218833,0.0285739
45182660,-0.000238705,0.000735413,-0.00184491,0.999342,-0.00445942,-0.0218814,0.0285726
45193753,-0.00033328,0.000125318,-0.000125044,0.999342,-0.00446448,-0.0218795,0.0285803
45201719,-0.00076875,6.31972e-06,-0.000866136,0.999342,-0.00446726,-0.0218792,0.0285856
45213821,0.000413625,-2.3318e-06,-0.00109426,0.999342,-0.00446805,-0.0218786,0.0285901
45221743,0.000728211,9.83886e-05,-0.00142102,0.999342,-0.00446587,-0.0218775,0.0285935
45234770,-2.00395e-05,2.98349e-06,-0.000975923,0.999342,-0.00446589,-0.0218781,0.0285988
45245739,0.000399906,-6.01751e-06,-0.00151258,0.999341,-0.00446722,-0.0218798,0.0286023
45255339,-7.01123e-06,4.9693e-06,-0.000567571,0.999341,-0.0044661,-0.0218796,0.0286068
45266740,-0.000329723,-0.000526621,-0.000861107,0.999341,-0.00446892,-0.0218828,0.0286177
45278608,0.000616488,-0.000119083,-0.00182934,0.999341,-0.00446719,-0.0218842,0.0286223
45289753,0.00125815,-1.29589e-05,-0.0018353,0.999341,-0.00446049,-0.0218835,0.0286255
45302609,0.00143545,-3.71947e-06,-0.00099725,0.999341,-0.00445539,-0.0218825,0.028632
45315646,0.000102323,0.000641938,-0.000464004,0.999341,-0.00445647,-0.0218775,0.0286383
45326535,0.000200266,-0.000106582,-0.000976222,0.99934,-0.00445433,-0.0218747,0.0286433
45335669,-0.000647184,1.52923e-06,-0.000966566,0.99934,-0.00445629,-0.0218752,0.0286471
45347346,0.00052764,-0.000746786,-0.000977693,0.99934,-0.00445796,-0.0218764,0.0286539
45359059,0.000628091,-0.000648775,-0.00149367,0.99934,-0.0044591,-0.0218786,0.0286561
45370560,-0.000330803,-1.76369e-06,-0.000973525,0.99934,-0.00445841,-0.0218786,0.0286614
45383600,-0.000451839,-0.000757776,-0.00158715,0.99934,-0.00446507,-0.0218805,0.0286621
45394595,-0.000872707,-0.00073692,1.13267e-05,0.999339,-0.00447027,-0.0218846,0.0286688
45407085,-0.000343831,-2.23096e-05,-0.00182691,0.999339,-0.0044764,-0.0218868,0.0286749
45414610,0.000511713,0.000625691,-0.00130618,0.999339,-0.00447718,-0.0218828,0.0286766
45427444,5.04435e-05,-6.99307e-06,-0.00199254,0.999339,-0.00448202,-0.021884,0.0286763
45438513,-0.000452459,-0.000538412,-0.000944811,0.999339,-0.00448486,-0.0218861,0.0286818
45446580,0.00070775,-0.000518145,-0.000718933,0.999339,-0.0044856,-0.0218897,0.0286867
45458546,0.00050069,-0.00106316,-0.000933679,0.999338,-0.00448594,-0.0218969,0.0286932
45471203,-0.000885075,-2.3162e-06,-0.00094639,0.999338,-0.00449222,-0.0218991,0.0287
45482602,0.000505038,0.000206579,-0.000965855,0.999338,-0.00449389,-0.0219013,0.0287059
45495278,0.000595771,-0.000546164,-0.00200361,0.999338,-0.00449391,-0.0219054,0.0287077
45506552,0.000707511,-0.000552712,-0.00200433,0.999338,-0.00449038,-0.021908,0.0287067
45519064,0.000718119,0.000528103,-0.00117599,0.999338,-0.00448604,-0.0219078,0.028712
45526613,7.3377e-05,-0.00044554,-0.00200585,0.999338,-0.00448581,-0.0219095,0.0287116
45539076,0.000721831,0.000528981,-0.000962906,0.999337,-0.00448575,-0.0219119,0.0287177
45551259,-0.000553205,-0.000319774,-0.000726438,0.999337,-0.00448894,-0.0219139,0.0287229
45563297,-0.000125253,-0.00054067,-0.000942652,0.999337,-0.00449315,-0.0219182,0.0287289
45763388,-4.36606e-05,-0.000531531,-0.00142285,0.999335,-0.0044729,-0.0219723,0.0287645
45771433,-0.000352754,0.000938664,-0.00200746,0.999335,-0.00447449,-0.0219711,0.0287631
45783584,0.000688854,0.000555437,-0.000900479,0.999335,-0.00447276,-0.021967,0.0287677
45791893,-0.000357575,0.000119879,-0.00091437,0.999335,-0.00447403,-0.0219647,0.0287711
45805196,0.00111192,2.80587e-05,-0.000881795,0.999335,-0.00447429,-0.0219645,0.0287735
45815899,-0.000470875,0.000227578,-0.000902363,0.999334,-0.00447333,-0.0219645,0.0287796
45828367,-0.000389479,-0.000717673,-0.000951156,0.999334,-0.00447828,-0.0219683,0.0287828
45839508,-5.83574e-05,-0.0010479,-0.00108622,0.999334,-0.00448111,-0.0219721,0.0287877
45892168,-5.81197e-05,3.1404e-05,-0.00085971,0.999334,-0.00448005,-0.0219716,0.0287987
45903413,-0.000790676,1.8114e-05,-0.000883016,0.999334,-0.00448187,-0.0219737,0.028804
45912240,-0.000389949,0.000537877,-0.0019361,0.999334,-0.00448539,-0.0219721,0.0288044
45924159,0.000485129,-0.000283901,-2.80626e-05,0.999333,-0.00448576,-0.0219738,0.028811
45936347,0.000251451,-0.000511121,-0.00138447,0.999333,-0.0044872,-0.0219738,0.0288138
45947628,0.000795512,0.000134764,-0.000564894,0.999333,-0.00448646,-0.0219728,0.0288205
45960652,0.00109754,0.000456735,-0.000867287,0.999333,-0.00448039,-0.0219704,0.0288243
45969492,0.000679415,-0.000100168,-0.00162463,0.999333,-0.00447907,-0.0219701,0.0288265
45979341,-0.000177453,0.000853861,-0.00184651,0.999333,-0.00448327,-0.0219668,0.0288286
45991337,-0.00102549,-0.000732283,-0.00139019,0.999333,-0.00448495,-0.0219681,0.0288294
45999607,-0.0001759,-0.000732612,-0.00138937,0.999333,-0.00448784,-0.0219695,0.0288297
46011354,0.000248605,2.46791e-05,-0.000862688,0.999333,-0.00448545,-0.0219675,0.0288335
46023913,0.000669778,-0.000518575,-0.00160454,0.999333,-0.00448574,-0.0219666,0.0288394
46032344,-0.000717874,-0.000524261,-0.00190219,0.999333,-0.00448807,-0.0219679,0.0288379
46044035,0.00141867,-0.000275586,-0.00107464,0.999333,-0.00448778,-0.021968,0.0288393
46051424,0.000662221,-0.000312087,-0.00212651,0.999333,-0.00448632,-0.0219685,0.028838
46067917,-0.000392847,-0.00137948,-0.00189652,0.999332,-0.00449097,-0.0219732,0.0288396
46077846,-0.00165778,5.6501e-06,-0.00150412,0.999332,-0.00449957,-0.0219742,0.0288391
46089144,0.000356867,-8.18055e-05,-0.000956134,0.999332,-0.00450224,-0.0219724,0.0288414
46100235,-0.000698162,-0.000726153,-0.000846914,0.999332,-0.00450245,-0.0219778,0.0288467
46108250,0.000579769,-0.000834063,-0.000854668,0.999332,-0.00450358,-0.0219814,0.0288501
46120341,0.000691852,-9.25025e-05,-0.000877513,0.999332,-0.00450119,-0.0219831,0.0288545
46128589,0.0011164,-0.000413051,-0.000977966,0.999332,-0.00449854,-0.021985,0.0288569
46141940,0.000574484,-0.00106501,-0.00191677,0.999332,-0.00449706,-0.0219896,0.0288578
46152173,0.000791872,1.16255e-05,-0.00119168,0.999332,-0.00449343,-0.0219901,0.0288597
46161007,0.000682825,-0.000946103,-0.00126251,0.999331,-0.00449185,-0.0219921,0.0288639
46172717,-4.42176e-05,2.41648e-05,-0.000130606,0.999331,-0.0044895,-0.0219952,0.0288672
46184149,0.00119919,-0.00022245,-0.00266691,0.999331,-0.00448606,-0.021996,0.0288655
46192168,0.000262414,1.39247e-05,-0.000869491,0.999331,-0.00448518,-0.021996,0.0288683
46205090,0.00142013,-0.00051152,-0.000951014,0.999331,-0.004481,-0.0219969,0.0288728
46212242,0.00154768,-0.000826945,-0.000228362,0.999331,-0.00447701,-0.0220006,0.028879
46224130,0.000690422,-0.000636833,-0.00139831,0.999331,-0.00447524,-0.0220055,0.0288856
46236195,0.000486294,0.000964299,-0.00110998,0.99933,-0.00447437,-0.0220054,0.0288886
46244140,-0.000373502,0.00020221,-0.00194101,0.99933,-0.00447549,-0.0220053,0.0288874
46257067,0.000697047,-0.000833087,-0.000543014,0.99933,-0.00447764,-0.0220086,0.0288931
46268105,0.000474258,0.00106909,-0.00121305,0.99933,-0.00447577,-0.022008,0.0288962
46276647,-0.000267321,0.000542163,-0.000870509,0.99933,-0.00447687,-0.0220047,0.0288993
46288251,-0.000373796,0.000753563,-0.000867303,0.99933,-0.00447844,-0.0220019,0.0289018
46296796,0.000682759,2.4694e-06,-0.00161367,0.99933,-0.00447793,-0.0220018,0.0289048
46312230,0.000267796,0.00106513,-0.00141405,0.99933,-0.00448136,-0.0219994,0.0289045
46324775,0.000698494,-4.3395e-06,-0.00141225,0.99933,-0.00447747,-0.0219984,0.02891
46336195,0.000697,-0.000433428,-0.00161168,0.99933,-0.00447656,-0.0220008,0.0289102
46348956,0.000698942,-0.000974247,-0.00193204,0.99933,-0.00447308,-0.0220052,0.0289096
46356175,-4.0808e-05,0.000515394,-0.00195165,0.99933,-0.00447183,-0.0220062,0.0289088
46368163,0.000140515,0.000736968,-0.00266104,0.99933,-0.00447083,-0.0220039,0.0289072
46380157,0.000597297,6.76769e-06,-0.000868839,0.99933,-0.00446914,-0.0220037,0.0289093
46390323,0.000452554,-0.000511111,-0.00102701,0.99933,-0.00446665,-0.0220055,0.0289126
46400158,0.00036651,-0.00052826,-0.00137734,0.99933,-0.00446593,-0.0220084,0.0289177
46409147,0.000346312,-0.000850392,-0.00198442,0.999329,-0.00446569,-0.0220113,0.0289173
46421285,0.000354253,-0.00053411,-0.00200323,0.999329,-0.00446569,-0.0220124,0.0289171
46432990,0.000663126,1.02548e-05,-0.00177973,0.999329,-0.00446219,-0.0220126,0.0289207
46444684,-0.00144844,0.000207972,-0.00190243,0.999329,-0.00447018,-0.0220117,0.0289248
46453811,-8.84407e-05,-0.000197489,-0.00175752,0.999329,-0.0044733,-0.0220107,0.0289268
46466819,-0.0006931,0.000341072,-0.000308667,0.999329,-0.0044774,-0.0220107,0.0289354
46476987,-0.000414145,-0.000404372,-0.00173659,0.999329,-0.00447812,-0.0220116,0.0289432
46489761,0.000341074,-1.27752e-05,-0.00295067,0.999329,-0.00447965,-0.0220123,0.0289447
46501875,-0.0004133,-0.000592045,-0.000765733,0.999328,-0.00447968,-0.0220161,0.028949
46513499,-0.00135354,2.79625e-05,-0.000797827,0.999328,-0.00448586,-0.022018,0.0289559
46521409,0.000660283,4.6564e-05,-0.000260914,0.999328,-0.00448743,-0.0220181,0.0289619
46537490,0.000237192,-0.000498625,-0.000793091,0.999328,-0.00448385,-0.0220189,0.0289708
46546335,-0.000421593,-8.76107e-05,-0.0020493,0.999328,-0.00448537,-0.0220214,0.0289718
46556910,0.000640037,0.00107741,-0.00239869,0.999328,-0.00448454,-0.0220188,0.0289712
46569221,-0.000417744,-9.22317e-05,-0.0018435,0.999328,-0.0044855,-0.0220216,0.0289727
46577108,0.000436434,1.41745e-05,-0.00185169,0.999328,-0.00448427,-0.0220227,0.0289736
46592944,0.000117386,0.00014018,-0.000780902,0.999327,-0.0044813,-0.022024,0.0289828
46601013,-0.000413337,-0.000177972,-0.000771558,0.999327,-0.00448382,-0.0220241,0.0289888
46613265,1.36436e-05,0.000126347,-0.00152631,0.999327,-0.00448608,-0.0220224,0.0289911
46624983,0.000965285,-0.000513892,-0.00161966,0.999327,-0.00448371,-0.0220254,0.0289934
