timestamp,gyro_rad[0],gyro_rad[1],gyro_rad[2],gyro_integral_dt,accelerometer_timestamp_relative,accelerometer_m_s2[0],accelerometer_m_s2[1],accelerometer_m_s2[2],accelerometer_integral_dt,magnetometer_timestamp_relative,magnetometer_ga[0],magnetometer_ga[1],magnetometer_ga[2],baro_timestamp_relative,baro_alt_meter,baro_temp_celcius
38463758,-0.00354416,0.00237856,0.00322723,0.004001,0,-0.434378,0.111902,-10.0302,0.004001,-4741,0.424893,-0.0678904,0.304066,-12750,-31.9987,34.21
38764561,-0.00353619,0.00239652,0.00429127,0.004003,0,-0.418808,0.115345,-10.0384,0.004003,-5838,0.422488,-0.0678904,0.307772,-15053,-32.2477,34.21
38768562,-0.00226759,0.00239652,0.00428176,0.004001,0,-0.434067,0.113274,-10.0534,0.004001,-9839,0.422488,-0.0678904,0.307772,-19054,-32.2477,34.21
38772558,-0.00225397,0.00294031,0.00501645,0.003996,0,-0.43247,0.124154,-10.0625,0.003996,-4935,0.424893,-0.0651819,0.302831,-23050,-32.2477,34.21
38776557,-0.00300712,0.0021766,0.00386515,0.003999,0,-0.43182,0.111896,-10.0733,0.003999,-8934,0.424893,-0.0651819,0.302831,-960,-31.7498,34.21
38780558,-0.00354331,0.00205951,0.00334062,0.004001,0,-0.44782,0.1051,-10.0609,0.004001,-3036,0.426096,-0.0678904,0.302831,-4961,-31.7498,34.21
38784557,-0.00354259,0.00259488,0.00343637,0.003999,0,-0.44395,0.112338,-10.0694,0.003999,-7035,0.426096,-0.0678904,0.302831,-8960,-31.7498,34.21
38788569,-0.00374998,0.00346059,0.00427491,0.004012,0,-0.430136,0.135336,-10.0703,0.004012,-11047,0.426096,-0.0678904,0.302831,-12972,-31.7498,34.21
38792561,-0.00385479,0.00270984,0.00407466,0.003992,0,-0.43218,0.121598,-10.0567,0.003992,-2119,0.426096,-0.0678904,0.304066,-16964,-31.7498,34.21
38796558,-0.0035386,0.00260411,0.00396902,0.003997,0,-0.442858,0.118051,-10.0376,0.003997,-6116,0.426096,-0.0678904,0.304066,-20961,-31.7498,34.21
38800558,-0.00332119,0.00324551,0.00427533,0.004,0,-0.435624,0.125992,-10.056,0.004,-10116,0.426096,-0.0678904,0.304066,-24961,-31.7498,34.21
38804558,-0.00331617,0.00242226,0.00524715,0.004,0,-0.413523,0.125272,-10.0655,0.004,-2719,0.422488,-0.071953,0.301596,-2859,-31.7498,34.21
38808558,-0.00246947,0.00133784,0.00462047,0.004,0,-0.422335,0.120657,-10.0266,0.004,-6719,0.422488,-0.071953,0.301596,-6859,-31.7498,34.21
38812558,-0.00321998,0.00132526,0.00388122,0.004,0,-0.427829,0.0970043,-10.0539,0.004,-1714,0.424893,-0.071953,0.304066,-10859,-31.7498,34.21
38816591,-0.00429167,0.00206195,0.00323818,0.004033,0,-0.416266,0.11574,-10.049,0.004033,-5747,0.424893,-0.071953,0.304066,-14892,-31.7498,34.21
38820561,-0.00385832,0.00237856,0.00322959,0.00397,0,-0.42653,0.121183,-10.0382,0.00397,-1781,0.422488,-0.071953,0.305302,-18862,-31.7498,34.21
38824558,-0.0034304,0.00282254,0.00417717,0.003997,0,-0.424103,0.121932,-10.0369,0.003997,-5778,0.422488,-0.071953,0.305302,-22859,-31.7498,34.21
38828557,-0.00247675,0.00217301,0.00364857,0.003999,0,-0.427409,0.127125,-10.0297,0.003999,-9777,0.422488,-0.071953,0.305302,-26858,-31.7498,34.21
38832572,-0.00343477,0.00183801,0.00302159,0.004015,0,-0.418847,0.110514,-10.0718,0.004015,-4892,0.420082,-0.071953,0.304066,-30873,-31.7498,34.21
38836558,-0.00376172,0.00226467,0.00269898,0.003986,0,-0.419176,0.119413,-10.0865,0.003986,-8878,0.420082,-0.071953,0.304066,-34859,-31.7498,34.21
38840558,-0.00439401,0.0031254,0.00343387,0.004,0,-0.43134,0.126906,-10.0422,0.004,-2766,0.422488,-0.0678904,0.302831,-38859,-31.7498,34.21
38844557,-0.00428318,0.00249937,0.00408273,0.003999,0,-0.422743,0.121026,-10.0476,0.003999,-6765,0.422488,-0.0678904,0.302831,-42858,-31.7498,34.21
38848563,-0.00354416,0.00237856,0.00322723,0.004006,0,-0.426358,0.140553,-10.0503,0.004006,-1227,0.424893,-0.0692446,0.304066,-46864,-31.7498,34.21
38852589,-0.00226483,0.0025941,0.00321401,0.004026,0,-0.424109,0.12479,-10.0812,0.004026,-5253,0.424893,-0.0692446,0.304066,-50890,-31.7498,34.21
38856560,-0.00216278,0.00323731,0.00373874,0.003971,0,-0.40719,0.105327,-10.0626,0.003971,-9224,0.424893,-0.0692446,0.304066,-2045,-31.7498,34.21
38860558,-0.00322128,0.00238396,0.00354527,0.003998,0,-0.424254,0.120325,-10.0596,0.003998,-3033,0.427299,-0.0678904,0.304066,-6043,-31.7498,34.21
38864558,-0.00333529,0.00216575,0.00322926,0.004,0,-0.434939,0.117938,-10.07,0.004,-7033,0.427299,-0.0678904,0.304066,-10043,-31.7498,34.21
38868558,-0.0015222,0.00237856,0.00321208,0.004,0,-0.430819,0.12646,-10.0691,0.004,-1492,0.426096,-0.0678904,0.301596,-14043,-31.7498,34.21
38872558,-0.00343083,0.00239112,0.00397059,0.004,0,-0.427002,0.147718,-10.0394,0.004,-5492,0.426096,-0.0678904,0.301596,-18043,-31.7498,34.21
38876586,-0.00353777,0.00217786,0.00407987,0.004028,0,-0.431128,0.162818,-10.0461,0.004028,-9520,0.426096,-0.0678904,0.301596,-22071,-31.7498,34.21
38880559,-0.00427918,0.00207666,0.00419467,0.003973,0,-0.428034,0.150109,-10.0415,0.003973,-2026,0.427299,-0.0665361,0.301596,-749,-32.1647,34.21
38884557,-0.00406201,0.00335426,0.00427904,0.003998,0,-0.417553,0.121586,-10.056,0.003998,-6024,0.427299,-0.0665361,0.301596,-4747,-32.1647,34.21
38888558,-0.004073,0.00325152,0.00449994,0.004001,0,-0.415319,0.129487,-10.0868,0.004001,-10025,0.427299,-0.0665361,0.301596,-8748,-32.1647,34.21
38892558,-0.00322618,0.00217173,0.00355139,0.004,0,-0.420711,0.1257,-10.0737,0.004,-5216,0.422488,-0.0692446,0.305302,-12748,-32.1647,34.21
38896585,-0.00322337,0.00152588,0.00323922,0.004027,0,-0.421936,0.102793,-10.0389,0.004027,-9243,0.422488,-0.0692446,0.305302,-16775,-32.1647,34.21
38900559,-0.0039672,0.00185027,0.00323932,0.003974,0,-0.429594,0.097848,-10.0335,0.003974,-13217,0.422488,-0.0692446,0.305302,-20749,-32.1647,34.21
38904562,-0.00353857,0.00239114,0.00397256,0.004003,0,-0.426663,0.105522,-10.0605,0.004003,-4342,0.424893,-0.0678904,0.304066,-24752,-32.1647,34.21
38908557,-0.00482106,0.00238035,0.00334281,0.003995,0,-0.42864,0.115404,-10.0657,0.003995,-8337,0.424893,-0.0678904,0.304066,-1727,-31.8327,34.21
38912559,-0.00428909,0.00216572,0.00323641,0.004002,0,-0.433681,0.119762,-10.065,0.004002,-2558,0.424893,-0.0665361,0.30036,-5729,-31.8327,34.21
38916612,-0.00385326,0.00154426,0.00399315,0.004053,0,-0.436399,0.117739,-10.0707,0.004053,-6611,0.424893,-0.0665361,0.30036,-9782,-31.8327,34.21
38920557,-0.0035378,0.00239288,0.00407563,0.003945,0,-0.443516,0.101947,-10.0579,0.003945,-10556,0.424893,-0.0665361,0.30036,-13727,-31.8327,34.21
38924573,-0.00258051,0.00239115,0.00396589,0.004016,0,-0.453955,0.110973,-10.0427,0.004016,-1710,0.42369,-0.0678904,0.30036,-17743,-31.8327,34.21
38928581,-0.00322396,0.00239109,0.00396729,0.004008,0,-0.460673,0.102373,-10.0453,0.004008,-5718,0.42369,-0.0678904,0.30036,-21751,-31.8327,34.21
38932561,-0.00257611,0.00314591,0.00427143,0.00398,0,-0.445718,0.0982493,-10.0091,0.00398,-9698,0.42369,-0.0678904,0.30036,-25731,-31.8327,34.21
38936614,-0.00247204,0.00271524,0.00427792,0.004053,0,-0.430497,0.108587,-10.0316,0.004053,-4490,0.424893,-0.0705988,0.302831,-29784,-31.8327,34.21
38940558,-0.00247193,0.00185693,0.0042924,0.003944,0,-0.433611,0.123275,-10.0316,0.003944,-8434,0.424893,-0.0705988,0.302831,-33728,-31.8327,34.21
38944572,-0.00268752,0.00228478,0.00407466,0.004014,0,-0.451735,0.129428,-10.0378,0.004014,-12448,0.424893,-0.0705988,0.302831,-37742,-31.8327,34.21
38948558,-0.00354337,0.00238033,0.00333214,0.003986,0,-0.442758,0.13796,-10.0612,0.003986,-4237,0.42369,-0.0705988,0.304066,-41728,-31.8327,34.21
38952558,-0.00301598,0.00238741,0.00374747,0.004,0,-0.439094,0.139198,-10.0564,0.004,-8237,0.42369,-0.0705988,0.304066,-45728,-31.8327,34.21
38956558,-0.00289521,0.00186462,0.00429545,0.004,0,-0.44855,0.127344,-10.06,0.004,-2840,0.422488,-0.0705988,0.302831,-49728,-31.8327,34.21
38960561,-0.00269115,0.00131637,0.00335005,0.004003,0,-0.464094,0.112953,-10.0539,0.004003,-6843,0.422488,-0.0705988,0.302831,-1522,-31.8327,34.22
38964558,-0.00279484,0.00260119,0.00375046,0.003997,0,-0.473138,0.0994014,-10.0689,0.003997,-1847,0.424893,-0.0692446,0.30036,-5519,-31.8327,34.22
38968590,-0.00300614,0.00292657,0.00427835,0.004032,0,-0.456306,0.0989696,-10.0381,0.004032,-5879,0.424893,-0.0692446,0.30036,-9551,-31.8327,34.22
38972557,-0.00375026,0.00239652,0.00429287,0.003967,0,-0.451457,0.102215,-10.0311,0.003967,-9846,0.424893,-0.0692446,0.30036,-13518,-31.8327,34.22
38976557,-0.00438767,0.00239652,0.00429765,0.004,0,-0.447404,0.124134,-10.0348,0.004,-4527,0.426096,-0.0692446,0.305302,-17518,-31.8327,34.22
38980558,-0.00395697,0.00239652,0.00429442,0.004001,0,-0.438801,0.140843,-10.0436,0.004001,-8528,0.426096,-0.0692446,0.305302,-21519,-31.8327,34.22
38984560,-0.00300535,0.00186062,0.0040833,0.004002,0,-0.424918,0.130641,-10.0504,0.004002,-2235,0.426096,-0.071953,0.302831,-25521,-31.8327,34.22
38988561,-0.00268341,0.00207253,0.00397164,0.004001,0,-0.42733,0.127714,-10.0534,0.004001,-6236,0.426096,-0.071953,0.302831,-2842,-31.9157,34.22
38992559,-0.00205244,0.00217759,0.00375418,0.003998,0,-0.42732,0.127427,-10.0566,0.003998,-10234,0.426096,-0.071953,0.302831,-6840,-31.9157,34.22
38996558,-0.00237202,0.00206311,0.00343657,0.003999,0,-0.433117,0.128408,-10.0539,0.003999,-4107,0.426096,-0.0678904,0.302831,-10839,-31.9157,34.22
39000587,-0.00343141,0.00163973,0.00323886,0.004029,0,-0.4221,0.143048,-10.0571,0.004029,-8136,0.426096,-0.0678904,0.302831,-14868,-31.9157,34.22
39004560,-0.00375311,0.00228791,0.00397685,0.003973,0,-0.436158,0.1223,-10.0653,0.003973,-12109,0.426096,-0.0678904,0.302831,-18841,-31.9157,34.22
39008559,-0.00407267,0.00238574,0.0036564,0.003999,0,-0.43192,0.133229,-10.0547,0.003999,-5007,0.42369,-0.0665361,0.301596,-22840,-31.9157,34.22
39012558,-0.0027884,0.00239472,0.00417936,0.003999,0,-0.423346,0.142521,-10.0631,0.003999,-9006,0.42369,-0.0665361,0.301596,-26839,-31.9157,34.22
39016576,-0.00321667,0.00261076,0.00428526,0.004018,0,-0.439876,0.138571,-10.0529,0.004018,-2694,0.424893,-0.0665361,0.299125,-2878,-31.9987,34.22
39020593,-0.00354018,0.00291268,0.00375807,0.004017,0,-0.457071,0.127955,-10.0509,0.004017,-6711,0.424893,-0.0665361,0.299125,-6895,-31.9987,34.22
39024589,-0.00257386,0.00239652,0.00428406,0.003996,0,-0.453629,0.118805,-10.0379,0.003996,-2076,0.426096,-0.0665361,0.306537,-10891,-31.9987,34.22
39028558,-0.00343321,0.0033575,0.00427428,0.003969,0,-0.431589,0.126036,-10.0254,0.003969,-6045,0.426096,-0.0665361,0.306537,-14860,-31.9987,34.22
39032558,-0.00247204,0.00271587,0.00427791,0.004,0,-0.43643,0.131915,-10.0494,0.004,-979,0.42369,-0.0678904,0.301596,-18860,-31.9987,34.22
39036558,-0.00321782,0.00238402,0.00354867,0.004,0,-0.450929,0.113785,-10.0607,0.004,-4979,0.42369,-0.0678904,0.301596,-22860,-31.9987,34.22
39040592,-0.00205673,0.00163458,0.00322864,0.004034,0,-0.443148,0.128542,-10.0454,0.004034,-9013,0.42369,-0.0678904,0.301596,-26894,-31.9987,34.22
39044587,-0.00344207,0.00185372,0.00323532,0.003995,0,-0.442153,0.125508,-10.0378,0.003995,-1746,0.42369,-0.0678904,0.302831,-30889,-31.9987,34.22
39048558,-0.00332967,0.00162827,0.00323829,0.003971,0,-0.424141,0.119137,-10.0556,0.003971,-5717,0.42369,-0.0678904,0.302831,-34860,-31.9987,34.22
39052558,-0.00343767,0.00183921,0.00323554,0.004,0,-0.42456,0.109871,-10.0304,0.004,-1902,0.427299,-0.0678904,0.305302,-38860,-31.9987,34.22
39056558,-0.0035369,0.00165451,0.0041963,0.004,0,-0.418102,0.107131,-10.0374,0.004,-5902,0.427299,-0.0678904,0.305302,-42860,-31.9987,34.22
39060568,-0.00258305,0.00228547,0.004286,0.00401,0,-0.432728,0.103193,-10.0473,0.00401,-9912,0.427299,-0.0678904,0.305302,-46870,-31.9987,34.22
39064577,-0.00247197,0.00218166,0.00428692,0.004009,0,-0.446695,0.114878,-10.0404,0.004009,-4906,0.422488,-0.0665361,0.304066,-50879,-31.9987,34.22
39068558,-0.00247599,0.00228513,0.003751,0.003981,0,-0.423675,0.12294,-10.0489,0.003981,-8887,0.422488,-0.0665361,0.304066,-54860,-31.9987,34.22
39072561,-0.00247286,0.002935,0.00416785,0.004003,0,-0.422427,0.0955198,-10.0445,0.004003,-2159,0.428501,-0.0692446,0.301596,-2305,-32.0817,34.23
39076558,-0.00343248,0.00239113,0.00397116,0.003997,0,-0.425941,0.0991677,-10.0262,0.003997,-6156,0.428501,-0.0692446,0.301596,-6302,-32.0817,34.23
39080558,-0.00279382,0.0021992,0.005026,0.004,0,-0.441206,0.10381,-10.0421,0.004,-10156,0.428501,-0.0692446,0.301596,-10302,-32.0817,34.23
39084631,-0.002255,0.00241448,0.00534577,0.004073,0,-0.450575,0.119189,-10.0448,0.004073,-2877,0.424893,-0.0678904,0.304066,-14375,-32.0817,34.23
39089358,-0.00291809,0.00195119,0.0043768,0.004727,0,-0.42995,0.131529,-10.0394,0.004727,-7604,0.424893,-0.0678904,0.304066,-19102,-32.0817,34.23
39093358,-0.00428404,0.00133245,0.00431483,0.004,0,-0.43206,0.121533,-10.0466,0.004,-1838,0.42369,-0.0678904,0.304066,-23102,-32.0817,34.23
39097400,-0.00342204,0.00186625,0.00473176,0.004042,0,-0.442136,0.115915,-10.0803,0.004042,-5880,0.42369,-0.0678904,0.304066,-1570,-31.8327,34.23
39101372,-0.00322041,0.0020834,0.00440044,0.003972,0,-0.440394,0.123368,-10.0475,0.003972,-1222,0.427299,-0.0665361,0.302831,-5542,-31.8327,34.23
39105380,-0.00396914,0.00238209,0.00343976,0.004008,0,-0.449171,0.0938451,-10.054,0.004008,-5230,0.427299,-0.0665361,0.302831,-9550,-31.8327,34.23
39109358,-0.00459405,0.00294295,0.00514326,0.003978,0,-0.459661,0.0990257,-10.0376,0.003978,-9208,0.427299,-0.0665361,0.302831,-13528,-31.8327,34.23
39113358,-0.00407014,0.00239652,0.00429527,0.004,0,-0.466298,0.111083,-10.0505,0.004,-3019,0.427299,-0.0651819,0.304066,-17528,-31.8327,34.23
39117379,-0.00310723,0.00282548,0.00428081,0.004021,0,-0.447501,0.0998081,-10.0471,0.004021,-7040,0.427299,-0.0651819,0.304066,-21549,-31.8327,34.23
39121389,-0.00247201,0.00250173,0.00428152,0.00401,0,-0.442445,0.105113,-10.0554,0.00401,-11050,0.427299,-0.0651819,0.304066,-25559,-31.8327,34.23
39125385,-0.00246642,0.0029374,0.00502701,0.003996,0,-0.461082,0.109077,-10.0465,0.003996,-1893,0.42369,-0.0692446,0.304066,-2076,-31.9987,34.23
39129358,-0.00246799,0.00208474,0.00481859,0.003973,0,-0.466157,0.113188,-10.0676,0.003973,-5866,0.42369,-0.0692446,0.304066,-6049,-31.9987,34.23
39133358,-0.00322344,0.00237856,0.00322483,0.004,0,-0.450828,0.111881,-10.0734,0.004,-9866,0.42369,-0.0692446,0.304066,-10049,-31.9987,34.23
39137370,-0.00354257,0.00238215,0.00343993,0.004012,0,-0.429471,0.111579,-10.0764,0.004012,-5223,0.428501,-0.0678904,0.30036,-14061,-31.9987,34.23
39141358,-0.00300743,0.00239652,0.00428731,0.003988,0,-0.434934,0.107109,-10.0763,0.003988,-9211,0.428501,-0.0678904,0.30036,-18049,-31.9987,34.23
39145386,-0.002472,0.00239652,0.0042833,0.004028,0,-0.439742,0.104176,-10.0738,0.004028,-1701,0.429704,-0.0705988,0.302831,-22077,-31.9987,34.23
39149364,-0.00343527,0.0018545,0.00397778,0.003978,0,-0.42067,0.121656,-10.07,0.003978,-5679,0.429704,-0.0705988,0.302831,-26055,-31.9987,34.23
39153358,-0.00353762,0.00132892,0.00409996,0.003994,0,-0.387401,0.106024,-10.0355,0.003994,-1237,0.426096,-0.0678904,0.30036,-30049,-31.9987,34.23
39157371,-0.00375055,0.00101551,0.0042093,0.004013,0,-0.38034,0.110427,-10.0434,0.004013,-5250,0.426096,-0.0678904,0.30036,-34062,-31.9987,34.23
39161358,-0.00386135,0.00206639,0.00376975,0.003987,0,-0.402205,0.105706,-10.0706,0.003987,-9237,0.426096,-0.0678904,0.30036,-38049,-31.9987,34.23
39165373,-0.00396018,0.00165247,0.00430701,0.004015,0,-0.417912,0.0991169,-10.0447,0.004015,-13252,0.426096,-0.0678904,0.30036,-42064,-31.9987,34.23
39169358,-0.00354172,0.00217038,0.00355312,0.003985,0,-0.433874,0.100066,-10.0308,0.003985,-4649,0.428501,-0.0678904,0.306537,-46049,-31.9987,34.23
39173358,-0.00353863,0.0028125,0.00396481,0.004,0,-0.437745,0.0948234,-10.0531,0.004,-8649,0.428501,-0.0678904,0.306537,-50049,-31.9987,34.23
39177376,-0.00311651,0.00323379,0.00352987,0.004018,0,-0.42567,0.120419,-10.0553,0.004018,-2959,0.424893,-0.0678904,0.302831,-657,-32.0817,34.23
39181358,-0.00332628,0.00164146,0.00376998,0.003982,0,-0.439335,0.123158,-10.078,0.003982,-6941,0.424893,-0.0678904,0.302831,-4639,-32.0817,34.23
39185387,-0.0037561,0.00227651,0.00344347,0.004029,0,-0.459987,0.130406,-10.0794,0.004029,-1033,0.422488,-0.0665361,0.301596,-8668,-32.0817,34.23
39189358,-0.00278957,0.00240556,0.00482161,0.003971,0,-0.445202,0.125565,-10.0628,0.003971,-5004,0.422488,-0.0665361,0.301596,-12639,-32.0817,34.23
39193357,-0.00406014,0.00315924,0.00534672,0.003999,0,-0.431257,0.106349,-10.0298,0.003999,-9003,0.422488,-0.0665361,0.301596,-16638,-32.0817,34.23
39197369,-0.00332376,0.00271844,0.0043905,0.004012,0,-0.431908,0.121466,-10.0215,0.004012,-2050,0.427299,-0.0665361,0.302831,-20650,-32.0817,34.23
39201358,-0.00194184,0.00186649,0.00428827,0.003989,0,-0.422622,0.114951,-10.0537,0.003989,-6039,0.427299,-0.0665361,0.302831,-24639,-32.0817,34.23
39205385,-0.00247598,0.00217252,0.00375134,0.004027,0,-0.429212,0.114538,-10.0578,0.004027,-10066,0.427299,-0.0665361,0.302831,-676,-31.8327,34.23
39209357,-0.00344168,0.0013181,0.00345861,0.003972,0,-0.425737,0.11062,-10.063,0.003972,-4500,0.42369,-0.0705988,0.302831,-4648,-31.8327,34.23
39213358,-0.00364098,0.00133604,0.00452278,0.004001,0,-0.431437,0.105453,-10.0543,0.004001,-8501,0.42369,-0.0705988,0.302831,-8649,-31.8327,34.23
39217368,-0.00353533,0.0018676,0.00440636,0.00401,0,-0.43525,0.0994779,-10.0498,0.00401,-1911,0.424893,-0.0678904,0.301596,-12659,-31.8327,34.23
39221358,-0.00353777,0.00239295,0.0040798,0.00399,0,-0.429602,0.0966877,-10.0545,0.00399,-5901,0.424893,-0.0678904,0.301596,-16649,-31.8327,34.23
39225358,-0.00280335,0.00206284,0.00343417,0.004,0,-0.41022,0.116425,-10.0747,0.004,-9901,0.424893,-0.0678904,0.301596,-20649,-31.8327,34.23
39229358,-0.0024799,0.00185264,0.00322813,0.004,0,-0.403405,0.132071,-10.0517,0.004,-4857,0.42369,-0.0692446,0.304066,-24649,-31.8327,34.23
39233358,-0.00343196,0.00185896,0.00398024,0.004,0,-0.399648,0.118682,-10.015,0.004,-8857,0.42369,-0.0692446,0.304066,-2498,-32.5796,34.23
39237368,-0.00333053,0.00237856,0.00322563,0.00401,0,-0.414459,0.105521,-10.0335,0.00401,-1701,0.424893,-0.0692446,0.304066,-6508,-32.5796,34.23
39241358,-0.004503,0.00237856,0.00323442,0.00399,0,-0.414957,0.115415,-10.0665,0.00399,-5691,0.424893,-0.0692446,0.304066,-10498,-32.5796,34.23
39245358,-0.00535008,0.00238576,0.00366747,0.004,0,-0.419641,0.120201,-10.0819,0.004,-9691,0.424893,-0.0692446,0.304066,-14498,-32.5796,34.23
39249358,-0.00375276,0.0023947,0.00418502,0.004,0,-0.408534,0.106539,-10.0777,0.004,-4741,0.426096,-0.071953,0.305302,-18498,-32.5796,34.23
39253385,-0.003224,0.00238392,0.00354258,0.004027,0,-0.405658,0.103612,-10.0491,0.004027,-8768,0.426096,-0.071953,0.305302,-22525,-32.5796,34.23
39257370,-0.00299796,0.0018588,0.003983,0.003985,0,-0.429994,0.0979523,-10.0391,0.003985,-1764,0.422488,-0.0692446,0.305302,-26510,-32.5796,34.23
39261357,-0.00300501,0.00229137,0.00428906,0.003987,0,-0.433228,0.115957,-10.0043,0.003987,-5751,0.422488,-0.0692446,0.305302,-30497,-32.5796,34.23
39265358,-0.00226068,0.00239652,0.00428171,0.004001,0,-0.405486,0.119737,-10.024,0.004001,-9752,0.422488,-0.0692446,0.305302,-34498,-32.5796,34.23
39269372,-0.00268209,0.00145107,0.00504702,0.004014,0,-0.403269,0.112323,-10.0482,0.004014,-1124,0.421285,-0.0678904,0.305302,-38512,-32.5796,34.23
39273391,-0.00279547,0.00207466,0.00385734,0.004019,0,-0.421259,0.12322,-10.0374,0.004019,-5143,0.421285,-0.0678904,0.305302,-42531,-32.5796,34.23
39277370,-0.00354246,0.00142061,0.00345445,0.003979,0,-0.426179,0.121315,-10.028,0.003979,-9122,0.421285,-0.0678904,0.305302,-46510,-32.5796,34.23
39281358,-0.00353843,0.0013271,0.00399226,0.003988,0,-0.417146,0.0981317,-10.0418,0.003988,-1204,0.426096,-0.0678904,0.305302,-50498,-32.5796,34.23
39285358,-0.00407439,0.00131628,0.00335558,0.004,0,-0.421679,0.120683,-10.0671,0.004,-5204,0.426096,-0.0678904,0.305302,-3084,-32.3307,34.23
39289393,-0.00365199,0.00131813,0.00346159,0.004035,0,-0.415397,0.14948,-10.0597,0.004035,-9239,0.426096,-0.0678904,0.305302,-7119,-32.3307,34.23
39293373,-0.0042944,0.00185858,0.00355988,0.00398,0,-0.427502,0.129605,-10.0548,0.00398,-1273,0.424893,-0.0665361,0.302831,-11099,-32.3307,34.23
39297370,-0.00384962,0.00198507,0.00504926,0.003997,0,-0.442982,0.0911214,-10.0557,0.003997,-5270,0.424893,-0.0665361,0.302831,-15096,-32.3307,34.23
39301358,-0.00459646,0.00283078,0.00482249,0.003988,0,-0.434086,0.0965545,-10.054,0.003988,-9258,0.424893,-0.0665361,0.302831,-19084,-32.3307,34.23
39305358,-0.00438761,0.00292443,0.00428874,0.004,0,-0.43881,0.0998995,-10.042,0.004,-2548,0.424893,-0.0692446,0.305302,-23084,-32.3307,34.23
39309358,-0.00406889,0.00344812,0.00353882,0.004,0,-0.451696,0.107145,-10.0467,0.004,-6548,0.424893,-0.0692446,0.305302,-965,-32.0817,34.23
39313397,-0.00460051,0.00346059,0.00428129,0.004039,0,-0.422951,0.11127,-10.0495,0.004039,-1432,0.426096,-0.0678904,0.302831,-5004,-32.0817,34.23
39317370,-0.00460051,0.00346059,0.00428129,0.003973,0,-0.419999,0.116198,-10.0716,0.003973,-5405,0.426096,-0.0678904,0.302831,-8977,-32.0817,34.23
39321358,-0.00311976,0.00344798,0.00352334,0.003988,0,-0.420978,0.113913,-10.0398,0.003988,-1410,0.426096,-0.0678904,0.302831,-12965,-32.0817,34.23
39325358,-0.00215258,0.00218357,0.0042845,0.004,0,-0.423655,0.107101,-10.0424,0.004,-5410,0.426096,-0.0678904,0.302831,-16965,-32.0817,34.23
39329358,-0.00395827,0.00240011,0.00450725,0.004,0,-0.415005,0.122948,-10.0454,0.004,-9410,0.426096,-0.0678904,0.302831,-20965,-32.0817,34.23
39333358,-0.00385624,0.00239832,0.00440008,0.004,0,-0.426507,0.110045,-10.0711,0.004,-2312,0.424893,-0.0692446,0.302831,-24965,-32.0817,34.23
39337369,-0.00353628,0.00313601,0.00427879,0.004011,0,-0.431715,0.112228,-10.0914,0.004011,-6323,0.424893,-0.0692446,0.302831,-2539,-32.0817,34.23
39341359,-0.00333633,0.00185323,0.00333978,0.00399,0,-0.443068,0.0924379,-10.0801,0.00399,-10313,0.424893,-0.0692446,0.302831,-6529,-32.0817,34.23
39345358,-0.00301206,0.00131449,0.00324121,0.003999,0,-0.43892,0.0952465,-10.0579,0.003999,-4753,0.428501,-0.0678904,0.30036,-10528,-32.0817,34.23
39349358,-0.00321771,0.00228832,0.00418427,0.004,0,-0.445834,0.111796,-10.0504,0.004,-8753,0.428501,-0.0678904,0.30036,-14528,-32.0817,34.23
39353391,-0.00396537,0.00240008,0.00450543,0.004033,0,-0.443052,0.135374,-10.0559,0.004033,-1159,0.426096,-0.0692446,0.30036,-18561,-32.0817,34.23
39357370,-0.00310769,0.00216475,0.00333002,0.003979,0,-0.461442,0.108954,-10.0808,0.003979,-5138,0.426096,-0.0692446,0.30036,-22540,-32.0817,34.23
39361358,-0.00397097,0.00130551,0.00271634,0.003988,0,-0.438884,0.101618,-10.0803,0.003988,-9126,0.426096,-0.0692446,0.30036,-26528,-32.0817,34.23
39365358,-0.00407535,0.0015291,0.00335199,0.004,0,-0.430535,0.0978329,-10.062,0.004,-4201,0.427299,-0.0678904,0.301596,-30528,-32.0817,34.23
39369358,-0.00278969,0.00240005,0.00449477,0.004,0,-0.440122,0.131562,-10.0869,0.004,-8201,0.427299,-0.0678904,0.301596,-34528,-32.0817,34.23
39373389,-0.00151642,0.00239837,0.00438555,0.004031,0,-0.428193,0.142785,-10.1018,0.004031,-2896,0.426096,-0.071953,0.301596,-38559,-32.0817,34.23
39377381,-0.00216747,0.00238741,0.00374177,0.003992,0,-0.428915,0.129119,-10.0961,0.003992,-6888,0.426096,-0.071953,0.301596,-42551,-32.0817,34.23
39381389,-0.00278685,0.00239125,0.00397317,0.004008,0,-0.45149,0.134504,-10.0549,0.004008,-1466,0.424893,-0.0665361,0.30036,-46559,-32.0817,34.23
39385358,-0.00343256,0.00239652,0.00429049,0.003969,0,-0.441302,0.120667,-10.0365,0.003969,-5435,0.424893,-0.0665361,0.30036,-50528,-32.0817,34.23
39389358,-0.00375758,0.00196485,0.00409186,0.004,0,-0.430984,0.118322,-10.0609,0.004,-9435,0.424893,-0.0665361,0.30036,-2191,-32.2477,34.23
39393358,-0.00343139,0.00163996,0.00323885,0.004,0,-0.431677,0.125791,-10.022,0.004,-1396,0.427299,-0.0705988,0.306537,-6191,-32.2477,34.23
39397376,-0.0027999,0.00227051,0.00322348,0.004018,0,-0.419525,0.132288,-10.0364,0.004018,-5414,0.427299,-0.0705988,0.306537,-10209,-32.2477,34.23
39401393,-0.00269203,0.00333905,0.00320463,0.004017,0,-0.420777,0.117648,-10.0428,0.004017,-1164,0.427299,-0.0705988,0.304066,-14226,-32.2477,34.23
39405358,-0.00269278,0.00215635,0.00322461,0.003965,0,-0.417801,0.132629,-10.0382,0.003965,-5129,0.427299,-0.0705988,0.304066,-18191,-32.2477,34.23
39409358,-0.00354415,0.0022659,0.00322913,0.004,0,-0.415859,0.132797,-10.0827,0.004,-9129,0.427299,-0.0705988,0.304066,-22191,-32.2477,34.23
39413358,-0.00333731,0.00344263,0.00320772,0.004,0,-0.414897,0.123934,-10.0765,0.004,-1876,0.428501,-0.0651819,0.304066,-589,-31.9987,34.23
39417369,-0.00248005,0.00301724,0.00320848,0.004011,0,-0.416102,0.128294,-10.0607,0.004011,-5887,0.428501,-0.0651819,0.304066,-4600,-31.9987,34.23
39421417,-0.00323053,0.00344263,0.00320692,0.004048,0,-0.422831,0.108596,-10.0597,0.004048,-9935,0.428501,-0.0651819,0.304066,-8648,-31.9987,34.23
39425357,-0.00300132,0.00324713,0.00417052,0.00394,0,-0.425545,0.100902,-10.0645,0.00394,-4001,0.43211,-0.0651819,0.299125,-12588,-31.9987,34.23
39429358,-0.00247594,0.00217762,0.00375775,0.004001,0,-0.430526,0.122081,-10.101,0.004001,-8002,0.43211,-0.0651819,0.299125,-16589,-31.9987,34.23
39433357,-0.003012,0.00184639,0.00323223,0.003999,0,-0.433855,0.125174,-10.0879,0.003999,-2926,0.428501,-0.0692446,0.305302,-20588,-31.9987,34.23
39437408,-0.00247835,0.00238222,0.00343595,0.004051,0,-0.423928,0.147145,-10.0466,0.004051,-6977,0.428501,-0.0692446,0.305302,-24639,-31.9987,34.23
39442158,-0.0032858,0.00175273,0.00331989,0.00475,0,-0.418062,0.124816,-10.0407,0.00475,-1715,0.424893,-0.0665361,0.304066,-1816,-31.9987,34.23
39446158,-0.00354482,0.0013127,0.00313879,0.004,0,-0.422786,0.112028,-10.0226,0.004,-5715,0.424893,-0.0665361,0.304066,-5816,-31.9987,34.23
39450158,-0.00258555,0.00206113,0.00333185,0.004,0,-0.406799,0.11973,-10.0386,0.004,-1515,0.422488,-0.0651819,0.304066,-9816,-31.9987,34.23
39454192,-0.00236282,0.00271575,0.00417155,0.004034,0,-0.431308,0.118634,-10.0554,0.004034,-5549,0.422488,-0.0651819,0.304066,-13850,-31.9987,34.23
39458158,-0.00152166,0.00238212,0.0034231,0.003966,0,-0.454553,0.0860508,-10.0511,0.003966,-9515,0.422488,-0.0651819,0.304066,-17816,-31.9987,34.23
39462186,-0.00247276,0.00196817,0.00418113,0.004028,0,-0.444736,0.0893767,-10.034,0.004028,-1255,0.426096,-0.0638277,0.305302,-21844,-31.9987,34.23
39466158,-0.00258228,0.00207544,0.00386828,0.003972,0,-0.425307,0.106182,-10.0436,0.003972,-5227,0.426096,-0.0638277,0.305302,-25816,-31.9987,34.23
39470158,-0.00354406,0.00163012,0.00323986,0.004,0,-0.408104,0.109955,-10.061,0.004,-9227,0.426096,-0.0638277,0.305302,-29816,-31.9987,34.23
39474185,-0.00258394,0.0023911,0.00396321,0.004027,0,-0.431806,0.115255,-10.0721,0.004027,-2360,0.427299,-0.0692446,0.306537,-33843,-31.9987,34.23
39478158,-0.00247763,0.00259453,0.00353133,0.003973,0,-0.420765,0.11743,-10.0787,0.003973,-6333,0.427299,-0.0692446,0.306537,-37816,-31.9987,34.23
39482203,-0.00259209,0.00237668,0.00310882,0.004045,0,-0.40885,0.113313,-10.0917,0.004045,-1622,0.422488,-0.0638277,0.305302,-41861,-31.9987,34.23
39486158,-0.00343886,0.00237332,0.00291569,0.003955,0,-0.395961,0.114452,-10.0781,0.003955,-5577,0.422488,-0.0638277,0.305302,-45816,-31.9987,34.23
39490158,-0.00247997,0.00237856,0.00321926,0.004,0,-0.398422,0.117634,-10.0612,0.004,-9577,0.422488,-0.0638277,0.305302,-49816,-31.9987,34.23
39494158,-0.00247358,0.00186743,0.0040727,0.004,0,-0.434343,0.139297,-10.0348,0.004,-13577,0.422488,-0.0638277,0.305302,-170,-31.6668,34.23
39498166,-0.00332829,0.00237856,0.00322562,0.004008,0,-0.431857,0.130247,-10.0486,0.004008,-3016,0.424893,-0.0678904,0.302831,-4178,-31.6668,34.23
39502191,-0.00417404,0.00249971,0.00418959,0.004025,0,-0.445489,0.101537,-10.0698,0.004025,-7041,0.424893,-0.0678904,0.302831,-8203,-31.6668,34.23
39506158,-0.00353457,0.00208705,0.00450724,0.003967,0,-0.438866,0.112639,-10.0185,0.003967,-1474,0.426096,-0.0651819,0.304066,-12170,-31.6668,34.23
39510158,-0.00427404,0.00240198,0.00462068,0.004,0,-0.436526,0.117175,-10.0239,0.004,-5474,0.426096,-0.0651819,0.304066,-16170,-31.6668,34.23
39514158,-0.00364273,0.00335418,0.0042759,0.004,0,-0.440522,0.12755,-10.0474,0.004,-9474,0.426096,-0.0651819,0.304066,-20170,-31.6668,34.23
39518158,-0.00375621,0.00248703,0.0033337,0.004,0,-0.4458,0.121429,-10.0243,0.004,-13474,0.426096,-0.0651819,0.304066,-24170,-31.6668,34.23
39522173,-0.00397023,0.00237856,0.00323043,0.004015,0,-0.447326,0.0993949,-10.0263,0.004015,-3073,0.424893,-0.0678904,0.302831,-1800,-31.5838,34.23
39526157,-0.00406837,0.00239121,0.00398102,0.003984,0,-0.435541,0.102261,-10.0281,0.003984,-7057,0.424893,-0.0678904,0.302831,-5784,-31.5838,34.23
39530158,-0.00460448,0.00334509,0.00375093,0.004001,0,-0.436668,0.105286,-10.0784,0.004001,-2259,0.42369,-0.0705988,0.304066,-9785,-31.5838,34.23
39534158,-0.00406271,0.0025155,0.00503829,0.004,0,-0.437957,0.114268,-10.0901,0.004,-6259,0.42369,-0.0705988,0.304066,-13785,-31.5838,34.23
39538172,-0.00353625,0.00292484,0.00428235,0.004014,0,-0.445292,0.107539,-10.0356,0.004014,-10273,0.42369,-0.0705988,0.304066,-17799,-31.5838,34.23
39542179,-0.00332254,0.00239289,0.00407443,0.004007,0,-0.44016,0.118474,-10.0336,0.004007,-4302,0.424893,-0.0692446,0.302831,-21806,-31.5838,34.23
39546158,-0.00247599,0.00260152,0.00375047,0.003979,0,-0.441276,0.127628,-10.0593,0.003979,-8281,0.424893,-0.0692446,0.302831,-25785,-31.5838,34.23
39550158,-0.00321694,0.00250306,0.00428708,0.004,0,-0.428393,0.120736,-10.0648,0.004,-2008,0.422488,-0.0638277,0.302831,-2103,-32.1647,34.23
39554158,-0.00279134,0.00303496,0.00427491,0.004,0,-0.425324,0.121812,-10.0726,0.004,-6008,0.422488,-0.0638277,0.302831,-6103,-32.1647,34.23
39558203,-0.00289399,0.00346059,0.0042685,0.004045,0,-0.412605,0.12764,-10.0715,0.004045,-10053,0.422488,-0.0638277,0.302831,-10148,-32.1647,34.23
39562173,-0.0034349,0.00270622,0.00428529,0.00397,0,-0.431764,0.126761,-10.0515,0.00397,-4589,0.427299,-0.0692446,0.304066,-14118,-32.1647,34.23
39566158,-0.00406873,0.0026137,0.00450327,0.003985,0,-0.440025,0.126073,-10.0778,0.003985,-8574,0.427299,-0.0692446,0.304066,-18103,-32.1647,34.23
39570157,-0.0031106,0.00292869,0.0042791,0.003999,0,-0.435693,0.119565,-10.0768,0.003999,-12573,0.427299,-0.0692446,0.304066,-22102,-32.1647,34.23
39574159,-0.00300795,0.00239652,0.00428731,0.004002,0,-0.428968,0.116609,-10.0394,0.004002,-4180,0.426096,-0.0692446,0.301596,-26104,-32.1647,34.23
39578158,-0.00247197,0.00218365,0.00428689,0.003999,0,-0.411643,0.128735,-10.0317,0.003999,-8179,0.426096,-0.0692446,0.301596,-30103,-32.1647,34.23
39582158,-0.00322001,0.00153808,0.00387763,0.004,0,-0.419563,0.120643,-10.0417,0.004,-1129,0.428501,-0.0665361,0.302831,-34103,-32.1647,34.23
39586158,-0.00258217,0.00260933,0.00428053,0.004,0,-0.422004,0.112539,-10.0465,0.004,-5129,0.428501,-0.0665361,0.302831,-38103,-32.1647,34.23
39590173,-0.00322362,0.00270209,0.00353763,0.004015,0,-0.42888,0.13161,-10.067,0.004015,-9144,0.428501,-0.0665361,0.302831,-42118,-32.1647,34.23
39594158,-0.00333052,0.00237856,0.00322563,0.003985,0,-0.432193,0.115057,-10.0575,0.003985,-2062,0.426096,-0.0678904,0.305302,-46103,-32.1647,34.23
39598158,-0.00193828,0.00218231,0.00396359,0.004,0,-0.43097,0.10004,-10.0595,0.004,-6062,0.426096,-0.0678904,0.305302,-50103,-32.1647,34.23
39602158,-0.00321851,0.00228653,0.00407853,0.004,0,-0.435877,0.0866465,-10.0376,0.004,-10062,0.426096,-0.0678904,0.305302,-2216,-31.7498,34.23
39606157,-0.00300665,0.00260384,0.00396294,0.003999,0,-0.419208,0.104961,-10.0534,0.003999,-4866,0.426096,-0.0651819,0.305302,-6215,-31.7498,34.23
39610192,-0.00279298,0.00250213,0.00428392,0.004035,0,-0.434537,0.132157,-10.048,0.004035,-8901,0.426096,-0.0651819,0.305302,-10250,-31.7498,34.23
39614157,-0.00172076,0.00239652,0.00427767,0.003965,0,-0.445297,0.136097,-10.0389,0.003965,-1554,0.424893,-0.0705988,0.302831,-14215,-31.7498,34.23
39618158,-0.00236403,0.00335759,0.0044747,0.004001,0,-0.461447,0.129216,-10.0834,0.004001,-5555,0.424893,-0.0705988,0.302831,-18216,-31.7498,34.23
39622187,-0.00364898,0.00303076,0.00385105,0.004029,0,-0.451235,0.0977947,-10.0741,0.004029,-1781,0.426096,-0.0678904,0.304066,-22245,-31.7498,34.23
39626157,-0.00407274,0.00322834,0.00321685,0.00397,0,-0.432202,0.0826186,-10.0639,0.00397,-5751,0.426096,-0.0678904,0.304066,-522,-31.5838,34.23
39630206,-0.0033339,0.00237856,0.00322566,0.004049,0,-0.421324,0.0908766,-10.0573,0.004049,-962,0.428501,-0.0665361,0.304066,-4571,-31.5838,34.23
39634158,-0.00354584,0.00291342,0.00300275,0.003952,0,-0.422737,0.103424,-10.065,0.003952,-4914,0.428501,-0.0665361,0.304066,-8523,-31.5838,34.23
39638158,-0.00354667,0.00343727,0.00289219,0.004,0,-0.419116,0.111199,-10.0731,0.004,-8914,0.428501,-0.0665361,0.304066,-12523,-31.5838,34.23
39642203,-0.00355054,0.00193634,0.00237586,0.004045,0,-0.405604,0.108002,-10.0641,0.004045,-12959,0.428501,-0.0665361,0.304066,-16568,-31.5838,34.23
39646158,-0.0027919,0.00227528,0.00312174,0.003955,0,-0.430463,0.129889,-10.0428,0.003955,-4703,0.427299,-0.0651819,0.302831,-20523,-31.5838,34.23
39650196,-0.00418573,0.00216274,0.00323568,0.004038,0,-0.427464,0.148391,-10.0427,0.004038,-8741,0.427299,-0.0651819,0.302831,-24561,-31.5838,34.23
39654158,-0.00364253,0.00282231,0.00375792,0.003962,0,-0.409883,0.132382,-10.0419,0.003962,-1402,0.424893,-0.0678904,0.304066,-1654,-32.1647,34.23
39658158,-0.00354432,0.00365996,0.00320561,0.004,0,-0.424581,0.122672,-10.0692,0.004,-5402,0.424893,-0.0678904,0.304066,-5654,-32.1647,34.23
39662157,-0.00354427,0.00323189,0.00321283,0.003999,0,-0.443321,0.114976,-10.0484,0.003999,-9401,0.424893,-0.0678904,0.304066,-9653,-32.1647,34.23
39666157,-0.00354409,0.00185291,0.0032361,0.004,0,-0.438652,0.0990661,-10.0488,0.004,-4185,0.422488,-0.0705988,0.304066,-13653,-32.1647,34.23
39670178,-0.00258595,0.00227258,0.00322184,0.004021,0,-0.441693,0.111168,-10.0452,0.004021,-8206,0.422488,-0.0705988,0.304066,-17674,-32.1647,34.23
39674158,-0.0026912,0.00237856,0.00322084,0.00398,0,-0.42781,0.113286,-10.0594,0.00398,-2712,0.422488,-0.0665361,0.305302,-21654,-32.1647,34.23
39678158,-0.00269773,0.00236598,0.00247536,0.004,0,-0.456456,0.114714,-10.0674,0.004,-6712,0.422488,-0.0665361,0.305302,-25654,-32.1647,34.23
39682158,-0.00333142,0.00312341,0.00321306,0.004,0,-0.445352,0.111983,-10.0823,0.004,-10712,0.422488,-0.0665361,0.305302,-29654,-32.1647,34.23
39686157,-0.00258085,0.00249755,0.00396221,0.003999,0,-0.450658,0.119188,-10.0845,0.003999,-5448,0.426096,-0.0705988,0.304066,-33653,-32.1647,34.23
39690158,-0.00321734,0.00292869,0.0042799,0.004001,0,-0.431724,0.114048,-10.0602,0.004001,-9449,0.426096,-0.0705988,0.304066,-37654,-32.1647,34.23
39694158,-0.00269194,0.00184247,0.00333633,0.004,0,-0.435028,0.126177,-10.0715,0.004,-2609,0.424893,-0.0665361,0.304066,-41654,-32.1647,34.23
39698158,-0.00290562,0.00216575,0.00322604,0.004,0,-0.451093,0.113738,-10.0785,0.004,-6609,0.424893,-0.0665361,0.304066,-45654,-32.1647,34.23
39702166,-0.00247833,0.00206252,0.0034381,0.004008,0,-0.452244,0.11727,-10.0711,0.004008,-1516,0.424893,-0.0651819,0.304066,-49662,-32.1647,34.23
39706191,-0.00226003,0.00153926,0.00376001,0.004025,0,-0.451885,0.135906,-10.0639,0.004025,-5541,0.424893,-0.0651819,0.304066,-627,-32.4966,34.24
39710158,-0.00216691,0.00237856,0.00321691,0.003967,0,-0.417077,0.122215,-10.0489,0.003967,-9508,0.424893,-0.0651819,0.304066,-4594,-32.4966,34.24
39714158,-0.00247439,0.00207182,0.00396429,0.004,0,-0.416022,0.10888,-10.0566,0.004,-2248,0.421285,-0.0692446,0.301596,-8594,-32.4966,34.24
39718158,-0.00247202,0.00261013,0.00427969,0.004,0,-0.425678,0.0978724,-10.0882,0.004,-6248,0.421285,-0.0692446,0.301596,-12594,-32.4966,34.24
39722157,-0.00301286,0.0013127,0.00313491,0.003999,0,-0.444613,0.108453,-10.0482,0.003999,-1414,0.427299,-0.0692446,0.301596,-16593,-32.4966,34.24
39726203,-0.00519641,0.0018373,0.00143971,0.004046,0,-0.473409,0.173008,-10.0904,0.004046,-5460,0.427299,-0.0692446,0.301596,-20639,-32.4966,34.24
39730158,-0.00761252,0.00948652,0.00595479,0.003955,0,-0.27598,0.28025,-9.99543,0.003955,-1443,0.451354,-0.052994,0.295419,-24594,-32.4966,34.24
39734158,-0.000268843,-0.000972863,0.0289588,0.004,0,-0.190637,0.220578,-9.97215,0.004,-5443,0.451354,-0.052994,0.295419,-2456,-32.3307,34.24
39738201,0.0109129,-0.00744812,0.0491773,0.004043,0,-0.55984,0.0295029,-10.2665,0.004043,-9486,0.451354,-0.052994,0.295419,-6499,-32.3307,34.24
39742158,-0.00283951,0.00798673,0.0431041,0.003957,0,-0.822439,-0.205261,-10.2565,0.003957,-4399,0.451354,-0.0502856,0.291713,-10456,-32.3307,34.24
39746158,-0.0295699,0.00148179,0.00309967,0.004,0,-0.746796,-0.145446,-9.88795,0.004,-8399,0.451354,-0.0502856,0.291713,-14456,-32.3307,34.24
39750158,-0.0071696,-0.00455738,-0.0545319,0.004,0,-0.289903,0.251677,-9.67851,0.004,-1149,0.460976,-0.0380976,0.295419,-18456,-32.3307,34.24
39754162,-0.00982711,0.0174667,-0.0854135,0.004004,0,-0.0315257,0.21976,-10.1456,0.004004,-5153,0.460976,-0.0380976,0.295419,-22460,-32.3307,34.24
39758187,0.0309709,0.0304046,-0.0840397,0.004025,0,-0.168092,0.0446839,-9.98674,0.004025,-9178,0.460976,-0.0380976,0.295419,-1316,-31.9157,34.24
39762181,0.00609237,-0.0118362,-0.0414797,0.003994,0,-0.317744,-0.0335685,-10.103,0.003994,-1321,0.428501,-0.0570566,0.296654,-5310,-31.9157,34.24
39766178,-0.024887,-0.0230969,0.0140198,0.003997,0,-0.474353,0.016078,-10.4827,0.003997,-5318,0.428501,-0.0570566,0.296654,-9307,-31.9157,34.24
39770158,-0.0136825,0.00384296,0.0552014,0.00398,0,-0.529684,0.503972,-9.98592,0.00398,-9298,0.428501,-0.0570566,0.296654,-13287,-31.9157,34.24
39774158,-0.0187993,0.00967722,0.0824787,0.004,0,-0.409279,0.718855,-9.8875,0.004,-2033,0.43211,-0.0638277,0.292948,-17287,-31.9157,34.24
39778201,0.00811826,0.00396334,0.0850527,0.004043,0,-0.408602,0.526998,-10.1612,0.004043,-6076,0.43211,-0.0638277,0.292948,-21330,-31.9157,34.24
39782158,0.012899,0.0015871,0.0637827,0.003957,0,-0.521158,0.139225,-10.2473,0.003957,-10033,0.43211,-0.0638277,0.292948,-25287,-31.9157,34.24
39786158,-0.0101437,-0.00200974,0.0203679,0.004,0,-0.631803,-0.272866,-10.0024,0.004,-2872,0.440529,-0.0597651,0.296654,-29287,-31.9157,34.24
39790187,0.00406786,-0.0103021,-0.0340789,0.004029,0,-0.550154,-0.348522,-9.48293,0.004029,-6901,0.440529,-0.0597651,0.296654,-33316,-31.9157,34.24
39794158,-0.002724,-0.0141379,-0.0682054,0.003971,0,-0.519499,-0.255629,-9.90801,0.003971,-2142,0.454963,-0.0502856,0.290478,-37287,-31.9157,34.24
39798167,0.0100817,0.0155457,-0.0821441,0.004009,0,-0.642236,-0.208182,-10.4319,0.004009,-6151,0.454963,-0.0502856,0.290478,-41296,-31.9157,34.24
39802158,-0.00998275,0.0256074,-0.0702172,0.003991,0,-0.447679,-0.154427,-10.1839,0.003991,-1164,0.444138,-0.0462229,0.289243,-45287,-31.9157,34.24
39806157,-0.0186582,0.00771617,-0.0343046,0.003999,0,-0.000754425,0.113467,-10.0706,0.003999,-5163,0.444138,-0.0462229,0.289243,-49286,-31.9157,34.24
39810205,-0.00900351,0.00546185,0.0160481,0.004048,0,0.170812,0.593134,-9.94446,0.004048,-9211,0.444138,-0.0462229,0.289243,-1124,-32.0817,34.24
39814158,-0.00876859,-0.00174085,0.0708979,0.003953,0,-0.238874,0.933651,-10.267,0.003953,-2299,0.44534,-0.0421603,0.288007,-5077,-32.0817,34.24
39818169,0.00436601,-0.0146143,0.106933,0.004011,0,-0.693928,0.982253,-10.3748,0.004011,-6310,0.44534,-0.0421603,0.288007,-9088,-32.0817,34.24
39822162,-0.00228733,-0.0205393,0.11462,0.003993,0,-0.775734,0.520266,-10.1542,0.003993,-10303,0.44534,-0.0421603,0.288007,-13081,-32.0817,34.24
39826989,0.0157628,0.00708808,0.0824037,0.004827,0,-0.787086,-0.0323696,-9.92196,0.004827,-5004,0.45376,-0.0435145,0.294184,-17908,-32.0817,34.24
39830958,0.0105245,0.0295917,0.0310663,0.003969,0,-0.885179,-0.435621,-9.73396,0.003969,-8973,0.45376,-0.0435145,0.294184,-21877,-32.0817,34.24
39834958,-0.0127383,0.012522,-0.0028095,0.004,0,-0.558879,-0.804478,-9.92421,0.004,-2152,0.421285,-0.0692446,0.304066,-25877,-32.0817,34.24
39838969,0.0209267,0.0184716,-0.00988503,0.004011,0,-0.171355,-0.643674,-10.4632,0.004011,-6163,0.421285,-0.0692446,0.304066,-1212,-32.0817,34.24
39842958,-0.0325587,0.0294399,0.00479191,0.003989,0,-0.219609,-0.263326,-10.0289,0.003989,-10152,0.421285,-0.0692446,0.304066,-5201,-32.0817,34.24
39846958,-0.0307543,-0.0103796,0.00202367,0.004,0,-0.475145,0.232201,-9.83076,0.004,-5786,0.426096,-0.0692446,0.304066,-9201,-32.0817,34.24
39850958,-0.0101871,-0.0132104,-0.0311594,0.004,0,-0.587429,0.480914,-10.1776,0.004,-9786,0.426096,-0.0692446,0.304066,-13201,-32.0817,34.24
39854958,-0.0119823,0.0153523,-0.0707539,0.004,0,-0.527458,0.397229,-9.95165,0.004,-2845,0.420082,-0.0665361,0.307772,-17201,-32.0817,34.24
39858992,0.0199641,0.0268945,-0.0773208,0.004034,0,-0.328697,0.335321,-9.96227,0.004034,-6879,0.420082,-0.0665361,0.307772,-21235,-32.0817,34.24
39862987,-0.00880916,0.0200239,-0.0580655,0.003995,0,-0.209537,0.120626,-10.217,0.003995,-1754,0.43211,-0.0624735,0.292948,-25230,-32.0817,34.24
39866958,-0.00601035,0.00821438,-0.0465456,0.003971,0,-0.166023,-0.160712,-10.331,0.003971,-5725,0.43211,-0.0624735,0.292948,-2146,-31.6668,34.24
39870958,0.00267868,0.014525,-0.0465184,0.004,0,0.115668,-0.232953,-9.97089,0.004,-9725,0.43211,-0.0624735,0.292948,-6146,-31.6668,34.24
39874958,-0.0164715,-0.00152212,-0.0363257,0.004,0,0.235804,-0.265482,-9.38437,0.004,-2134,0.444138,-0.0557024,0.291713,-10146,-31.6668,34.24
39878996,0.0107741,-0.0258646,-0.0306493,0.004038,0,-0.360624,0.189113,-10.0934,0.004038,-6172,0.444138,-0.0557024,0.291713,-14184,-31.6668,34.24
39882958,-0.0240978,-0.0121288,-0.0153585,0.003962,0,-1.06182,0.915952,-10.5618,0.003962,-10134,0.444138,-0.0557024,0.291713,-18146,-31.6668,34.24
39886958,-0.0232118,-0.00898003,0.0175375,0.004,0,-1.01586,1.26565,-10.1793,0.004,-4619,0.442935,-0.0380976,0.295419,-22146,-31.6668,34.24
39890992,0.0198453,-0.00336386,0.0638167,0.004034,0,-0.491517,1.00505,-10.0146,0.004034,-8653,0.442935,-0.0380976,0.295419,-26180,-31.6668,34.24
39894958,0.024317,0.0193005,0.0983588,0.003966,0,-0.300872,-0.10103,-9.96464,0.003966,-1531,0.434515,-0.0543482,0.302831,-30146,-31.6668,34.24
39898979,0.0246291,0.0204467,0.0821517,0.004021,0,-0.454067,-0.924333,-10.062,0.004021,-5552,0.434515,-0.0543482,0.302831,-34167,-31.6668,34.24
39902958,-0.00658988,-0.0049273,0.0454857,0.003979,0,-0.241108,-0.692597,-10.0851,0.003979,-9531,0.434515,-0.0543482,0.302831,-38146,-31.6668,34.24
39906973,-0.043556,-0.0450892,0.016671,0.004015,0,0.0494706,0.00641084,-9.78428,0.004015,-4572,0.424893,-0.0624735,0.30036,-42161,-31.6668,34.24
39910979,-0.00440774,-0.0521835,0.00970283,0.004006,0,-0.219215,0.542405,-9.85804,0.004006,-8578,0.424893,-0.0624735,0.30036,-46167,-31.6668,34.24
39914958,0.0228827,-0.0180451,0.01901,0.003979,0,-0.950305,0.454823,-10.19,0.003979,-2496,0.424893,-0.0638277,0.307772,-50146,-31.6668,34.24
39918958,0.0127865,-0.00520436,0.0184677,0.004,0,-1.18063,0.088424,-10.0136,0.004,-6496,0.424893,-0.0638277,0.307772,-2483,-32.1647,34.25
39922958,-0.0179157,-0.0163382,0.00952017,0.004,0,-0.673067,-0.0948597,-10.1267,0.004,-1399,0.427299,-0.0651819,0.305302,-6483,-32.1647,34.25
39926958,-0.0207044,0.00864444,-0.0061848,0.004,0,-0.246947,-0.319342,-10.3068,0.004,-5399,0.427299,-0.0651819,0.305302,-10483,-32.1647,34.25
39930957,0.00755774,0.0358998,-0.0250529,0.003999,0,-0.108205,-0.0835994,-10.0375,0.003999,-1099,0.438124,-0.0570566,0.294184,-14482,-32.1647,34.25
39934958,-0.0178145,0.0242301,-0.027902,0.004001,0,0.0194778,0.0751222,-9.92237,0.004001,-5100,0.438124,-0.0570566,0.294184,-18483,-32.1647,34.25
39938957,-0.0250477,-0.0224983,-0.0305541,0.003999,0,-0.0519965,0.470123,-9.84633,0.003999,-9099,0.438124,-0.0570566,0.294184,-22482,-32.1647,34.25
39942958,0.00727508,-0.0307459,-0.034845,0.004001,0,-0.480678,0.866798,-10.3534,0.004001,-3024,0.438124,-0.0421603,0.295419,-364,-31.9987,34.25
39946958,0.0178403,0.0185124,-0.0130392,0.004,0,-0.8729,0.349715,-10.0256,0.004,-7024,0.438124,-0.0421603,0.295419,-4364,-31.9987,34.25
39950958,0.0341246,0.0142381,0.0308447,0.004,0,-1.16005,-0.191839,-9.78694,0.004,-2345,0.43211,-0.0638277,0.295419,-8364,-31.9987,34.25
39954958,0.00872504,0.0209408,0.0701708,0.004,0,-0.818853,-0.157391,-10.5564,0.004,-6345,0.43211,-0.0638277,0.295419,-12364,-31.9987,34.25
39958959,-0.0582417,0.0569968,0.0936742,0.004001,0,-0.428401,-0.105686,-10.4349,0.004001,-10346,0.43211,-0.0638277,0.295419,-16365,-31.9987,34.25
39962957,-0.00447647,0.0442947,0.0818897,0.003998,0,-0.397723,0.277579,-9.6705,0.003998,-4311,0.43211,-0.0557024,0.29789,-20363,-31.9987,34.25
39966958,0.00349685,0.00676509,0.0612188,0.004001,0,-0.341671,0.426972,-9.91298,0.004001,-8312,0.43211,-0.0557024,0.29789,-24364,-31.9987,34.25
39970957,-0.00411714,0.00440371,0.0411978,0.003999,0,-0.438805,0.11661,-9.72283,0.003999,-1063,0.42369,-0.0638277,0.301596,-1158,-32.1647,34.25
39974972,0.0149802,4.0605e-05,0.0347256,0.004015,0,-0.448185,0.104089,-9.91928,0.004015,-5078,0.42369,-0.0638277,0.301596,-5173,-32.1647,34.25
39978970,-0.0103309,0.0047869,0.0312125,0.003998,0,-0.559054,-0.236747,-10.304,0.003998,-9076,0.42369,-0.0638277,0.301596,-9171,-32.1647,34.25
39982958,0.0128551,0.0123539,0.00180279,0.003988,0,-0.698692,-0.378878,-10.0691,0.003988,-2215,0.42369,-0.0665361,0.302831,-13159,-32.1647,34.25
39986974,-0.0218133,0.0215668,-0.033495,0.004016,0,-0.781673,-0.439809,-10.3271,0.004016,-6231,0.42369,-0.0665361,0.302831,-17175,-32.1647,34.25
39990958,-0.0208286,0.0408207,-0.0606604,0.003984,0,-0.325413,-0.199162,-9.71566,0.003984,-1155,0.422488,-0.0692446,0.302831,-21159,-32.1647,34.25
39994991,-0.0309138,0.0297793,-0.0723712,0.004033,0,0.112112,0.362345,-9.62054,0.004033,-5188,0.422488,-0.0692446,0.302831,-25192,-32.1647,34.25
39998958,-0.0178669,0.00896703,-0.0833472,0.003967,0,0.25197,0.615572,-10.4161,0.003967,-9155,0.422488,-0.0692446,0.302831,-29159,-32.1647,34.25
40002971,0.00401956,0.0170218,-0.0929666,0.004013,0,0.139681,0.496284,-10.0556,0.004013,-1742,0.427299,-0.0651819,0.306537,-33172,-32.1647,34.25
40006996,0.0235461,0.00550655,-0.0867319,0.004025,0,-0.141712,0.185142,-10.0236,0.004025,-5767,0.427299,-0.0651819,0.306537,-37197,-32.1647,34.25
40010958,0.000953406,-0.0143065,-0.0687514,0.003962,0,-0.35411,-0.0725639,-10.0982,0.003962,-9729,0.427299,-0.0651819,0.306537,-41159,-32.1647,34.25
40014958,-0.00969887,-0.0106102,-0.0505396,0.004,0,-0.455623,0.0351061,-10.249,0.004,-5079,0.422488,-0.0651819,0.304066,-45159,-32.1647,34.25
40018958,-0.00624204,0.0143138,-0.0324237,0.004,0,-0.389065,0.256676,-10.2878,0.004,-9079,0.422488,-0.0651819,0.304066,-49159,-32.1647,34.25
40022958,-0.00909355,0.0144682,-0.0125926,0.004,0,-0.366077,0.365887,-9.67897,0.004,-2567,0.42369,-0.0665361,0.302831,-571,-32.2477,34.25
40027000,0.00717563,-0.0159632,0.0100852,0.004042,0,-0.441903,0.393683,-9.80887,0.004042,-6609,0.42369,-0.0665361,0.302831,-4613,-32.2477,34.25
40030958,-0.00123302,-0.0214788,0.0331523,0.003958,0,-0.363594,0.286748,-10.1847,0.003958,-10567,0.42369,-0.0665361,0.302831,-8571,-32.2477,34.25
40034958,-0.000963058,-0.0235571,0.049415,0.004,0,-0.331929,0.28103,-10.0573,0.004,-4791,0.421285,-0.0638277,0.302831,-12571,-32.2477,34.25
40038958,0.00659934,-0.0397027,0.063672,0.004,0,-0.499003,0.262519,-9.88626,0.004,-8791,0.421285,-0.0638277,0.302831,-16571,-32.2477,34.25
40042958,0.00568222,-0.0381071,0.0721649,0.004,0,-0.77207,0.083361,-10.1169,0.004,-2898,0.424893,-0.0678904,0.302831,-20571,-32.2477,34.25
40046968,0.00772622,-0.0294621,0.0713737,0.00401,0,-0.848779,0.0791813,-10.2601,0.00401,-6908,0.424893,-0.0678904,0.302831,-24581,-32.2477,34.25
40050958,-0.0175272,-0.0333778,0.0735495,0.00399,0,-0.540235,0.096235,-9.93587,0.00399,-10898,0.424893,-0.0678904,0.302831,-2920,-32.1647,34.25
40054958,-0.00497488,-0.0245209,0.0679821,0.004,0,-0.34225,0.0378208,-10.1834,0.004,-1904,0.427299,-0.0665361,0.30036,-6920,-32.1647,34.25
40058987,0.0115736,-0.00660338,0.0504955,0.004029,0,-0.328282,0.0693375,-10.0157,0.004029,-5933,0.427299,-0.0665361,0.30036,-10949,-32.1647,34.25
40062958,-0.0145425,-0.0163383,0.0311608,0.003971,0,-0.388815,-0.0886441,-9.92835,0.003971,-9904,0.427299,-0.0665361,0.30036,-14920,-32.1647,34.25
40066958,0.00959382,-0.0233789,0.00963399,0.004,0,-0.448172,-0.0345325,-10.202,0.004,-4797,0.424893,-0.0638277,0.305302,-18920,-32.1647,34.25
40070958,-0.0134992,-0.00477717,-0.0044541,0.004,0,-0.496193,0.11831,-10.1937,0.004,-8797,0.424893,-0.0638277,0.305302,-22920,-32.1647,34.25
40074958,-0.00849366,0.0112765,-0.0181741,0.004,0,-0.608737,0.0984118,-10.0693,0.004,-12797,0.424893,-0.0638277,0.305302,-1043,-32.1647,34.25
40078993,0.0168519,0.021013,-0.0392482,0.004035,0,-0.603791,-0.059929,-10.1529,0.004035,-4844,0.434515,-0.0557024,0.301596,-5078,-32.1647,34.25
40082958,-0.00873949,0.025677,-0.0605098,0.003965,0,-0.679432,-0.352906,-10.1557,0.003965,-8809,0.434515,-0.0557024,0.301596,-9043,-32.1647,34.25
40086958,0.00572202,0.031268,-0.0692831,0.004,0,-0.689487,-0.352797,-10.1772,0.004,-2728,0.447746,-0.0584108,0.290478,-13043,-32.1647,34.25
40090958,-0.0263601,0.0388903,-0.0707636,0.004,0,-0.539948,-0.0808537,-10.0564,0.004,-6728,0.447746,-0.0584108,0.290478,-17043,-32.1647,34.25
40094958,-0.0154114,0.0291306,-0.0833125,0.004,0,-0.506016,0.307495,-10.0608,0.004,-1162,0.444138,-0.0543482,0.299125,-21043,-32.1647,34.25
40098958,-0.0270395,0.0402492,-0.102458,0.004,0,-0.429718,0.342152,-10.0154,0.004,-5162,0.444138,-0.0543482,0.299125,-25043,-32.1647,34.25
40102958,0.0245094,0.0313776,-0.114131,0.004,0,-0.452983,0.147833,-9.84979,0.004,-9162,0.444138,-0.0543482,0.299125,-29043,-32.1647,34.25
40106958,0.00223367,0.0254393,-0.106306,0.004,0,-0.364431,0.0580276,-10.1596,0.004,-1363,0.426096,-0.0624735,0.301596,-33043,-32.1647,34.25
40110958,-0.0109121,0.015368,-0.0613577,0.004,0,-0.172431,0.163057,-9.99035,0.004,-5363,0.426096,-0.0624735,0.301596,-37043,-32.1647,34.25
40114959,-0.00454909,0.00113626,-0.000572893,0.004001,0,-0.375581,0.475826,-10.2915,0.004001,-1360,0.422488,-0.0665361,0.302831,-41044,-32.1647,34.25
40118958,-0.0125051,0.0242741,0.0452572,0.003999,0,-0.604251,0.590329,-10.0959,0.003999,-5359,0.422488,-0.0665361,0.302831,-45043,-32.1647,34.25
40122958,-0.000788538,0.00770951,0.0822293,0.004,0,-0.417655,0.563653,-9.60221,0.004,-9359,0.422488,-0.0665361,0.302831,-49043,-32.1647,34.25
40126958,-0.00757647,-0.00134243,0.104753,0.004,0,-0.270794,0.50376,-10.1027,0.004,-4625,0.422488,-0.0651819,0.305302,-1039,-32.4136,34.25
40130957,0.00195431,0.00579985,0.111553,0.003999,0,-0.054853,0.462813,-10.1395,0.003999,-8624,0.422488,-0.0651819,0.305302,-5038,-32.4136,34.25
40134983,0.00160722,-0.00149461,0.120978,0.004026,0,-0.171639,0.190464,-9.97702,0.004026,-12650,0.422488,-0.0651819,0.305302,-9064,-32.4136,34.25
40138957,0.0229794,-0.0142656,0.127747,0.003974,0,-0.368271,-0.00136134,-10.134,0.003974,-4553,0.424893,-0.0651819,0.305302,-13038,-32.4136,34.25
40142991,-0.000957916,-0.0291463,0.134031,0.004034,0,-0.404409,-0.185567,-10.035,0.004034,-8587,0.424893,-0.0651819,0.305302,-17072,-32.4136,34.25
40146958,-0.0117428,-0.029413,0.121255,0.003967,0,-0.60782,-0.160764,-10.1833,0.003967,-2530,0.42369,-0.0624735,0.302831,-21039,-32.4136,34.25
40150958,0.000790804,-0.0014201,0.0901906,0.004,0,-0.665596,0.0713644,-10.1083,0.004,-6530,0.42369,-0.0624735,0.302831,-25039,-32.4136,34.25
40155001,-0.0151094,0.000192471,0.0519699,0.004043,0,-0.499728,0.0366301,-9.80759,0.004043,-1472,0.421285,-0.0651819,0.305302,-3063,-31.8327,34.25
40158958,0.0115707,-0.00547804,0.016765,0.003957,0,-0.339424,-0.0825022,-10.0205,0.003957,-5429,0.421285,-0.0651819,0.305302,-7020,-31.8327,34.25
40162989,-0.00565527,0.00904015,-0.0111311,0.004031,0,-0.277142,-0.220279,-10.1234,0.004031,-9460,0.421285,-0.0651819,0.305302,-11051,-31.8327,34.25
40166958,-0.00457247,0.00700139,-0.0424984,0.003969,0,-0.261636,-0.221065,-9.98942,0.003969,-2195,0.421285,-0.0651819,0.305302,-15020,-31.8327,34.25
40170958,-0.00741837,-0.0058828,-0.0650083,0.004,0,-0.281598,-0.199165,-9.84672,0.004,-6195,0.421285,-0.0651819,0.305302,-19020,-31.8327,34.25
40174968,-0.00130664,-0.00335011,-0.084628,0.00401,0,-0.482139,-0.173916,-10.1528,0.00401,-1411,0.42369,-0.0678904,0.30036,-23030,-31.8327,34.25
40178958,-0.00371247,0.0163539,-0.100457,0.00399,0,-0.630784,-0.00699127,-10.2487,0.00399,-5401,0.42369,-0.0678904,0.30036,-1330,-32.0817,34.25
40182977,-0.0229144,0.0167561,-0.102561,0.004019,0,-0.553746,0.104937,-9.96336,0.004019,-9420,0.42369,-0.0678904,0.30036,-5349,-32.0817,34.25
40186958,0.00311487,0.00916343,-0.0931281,0.003981,0,-0.362227,0.276551,-10.2148,0.003981,-1075,0.422488,-0.0678904,0.302831,-9330,-32.0817,34.25
40190959,-0.0140909,0.0206017,-0.0759103,0.004001,0,-0.27386,0.195979,-10.1411,0.004001,-5076,0.422488,-0.0678904,0.302831,-13331,-32.0817,34.25
40194978,0.00233524,0.0161353,-0.0600804,0.004019,0,-0.323025,0.153534,-9.94978,0.004019,-9095,0.422488,-0.0678904,0.302831,-17350,-32.0817,34.25
40198958,-0.000574472,-0.00251833,-0.0403427,0.00398,0,-0.340897,0.326833,-10.0015,0.00398,-3099,0.422488,-0.0651819,0.304066,-21330,-32.0817,34.25
40202958,-0.0164503,-0.0118784,-0.0155041,0.004,0,-0.406287,0.392646,-10.0401,0.004,-7099,0.422488,-0.0651819,0.304066,-25330,-32.0817,34.25
40206963,0.00862527,-0.00414064,0.00762,0.004005,0,-0.551315,0.48775,-10.1327,0.004005,-1196,0.42369,-0.0651819,0.304066,-29335,-32.0817,34.25
40210958,-0.000314221,-0.00143849,0.0354002,0.003995,0,-0.598957,0.472106,-10.0145,0.003995,-5191,0.42369,-0.0651819,0.304066,-33330,-32.0817,34.25
40214958,0.00103423,-0.00952054,0.0609539,0.004,0,-0.489503,0.294532,-10.0529,0.004,-9191,0.42369,-0.0651819,0.304066,-37330,-32.0817,34.25
40218967,0.00140279,-0.0099606,0.0796944,0.004009,0,-0.410213,0.198181,-10.1622,0.004009,-2227,0.422488,-0.0665361,0.304066,-41339,-32.0817,34.25
40223757,-0.00114571,-0.00877907,0.0876666,0.00479,0,-0.346831,0.180239,-10.054,0.00479,-7017,0.422488,-0.0665361,0.304066,-46129,-32.0817,34.25
40227758,0.00239713,-0.0165271,0.0865376,0.004001,0,-0.36511,0.130883,-10.0659,0.004001,-11018,0.422488,-0.0665361,0.304066,-50130,-32.0817,34.25
40231760,0.00214599,-0.0210097,0.0803327,0.004002,0,-0.416841,0.114319,-10.074,0.004002,-5223,0.422488,-0.0638277,0.304066,-2277,-31.9157,34.25
40235795,-0.000792744,-0.0148294,0.0723308,0.004035,0,-0.561131,0.0394473,-10.074,0.004035,-9258,0.422488,-0.0638277,0.304066,-6312,-31.9157,34.25
40239758,-0.000149575,-0.00411521,0.0581827,0.003963,0,-0.612024,-0.0198539,-10.0653,0.003963,-2940,0.421285,-0.0665361,0.301596,-10275,-31.9157,34.25
40243832,-0.00340136,0.000447733,0.0397538,0.004074,0,-0.514074,-0.0798307,-9.97192,0.004074,-7014,0.421285,-0.0665361,0.301596,-14349,-31.9157,34.25
40247758,-0.0072841,0.00548043,0.0183722,0.003926,0,-0.441752,-0.138276,-10.0784,0.003926,-10940,0.421285,-0.0665361,0.301596,-18275,-31.9157,34.25
40251758,-0.00342316,0.0159297,-0.00639098,0.004,0,-0.415687,-0.114201,-10.0802,0.004,-4903,0.422488,-0.0651819,0.305302,-22275,-31.9157,34.25
40255801,-0.00873016,0.0171472,-0.0288778,0.004043,0,-0.386494,-0.0665278,-9.97076,0.004043,-8946,0.422488,-0.0651819,0.305302,-618,-31.6668,34.25
40259758,-0.00918845,0.00908003,-0.0454347,0.003957,0,-0.375494,0.0093746,-10.039,0.003957,-2849,0.426096,-0.0638277,0.305302,-4575,-31.6668,34.25
40263789,-0.00274426,0.0107443,-0.0571692,0.004031,0,-0.375096,0.0595242,-10.096,0.004031,-6880,0.426096,-0.0638277,0.305302,-8606,-31.6668,34.25
40267758,-0.00507534,0.0206624,-0.0625476,0.003969,0,-0.494239,0.0500774,-10.0258,0.003969,-10849,0.426096,-0.0638277,0.305302,-12575,-31.6668,34.25
40271758,0.00148999,0.0203905,-0.0657741,0.004,0,-0.55376,0.049799,-10.0122,0.004,-5518,0.426096,-0.0638277,0.305302,-16575,-31.6668,34.25
40275782,-0.008724,0.0156429,-0.0621878,0.004024,0,-0.503178,0.0904219,-10.0871,0.004024,-9542,0.426096,-0.0638277,0.305302,-20599,-31.6668,34.25
40279758,-0.00516333,0.021738,-0.0524708,0.003976,0,-0.408212,0.122151,-10.0553,0.003976,-2080,0.427299,-0.0651819,0.302831,-24575,-31.6668,34.25
40283758,-0.00490373,0.0214993,-0.0377826,0.004,0,-0.339347,0.213958,-9.90908,0.004,-6080,0.427299,-0.0651819,0.302831,-1773,-31.9157,34.25
40287758,-0.00573975,0.00649844,-0.0188937,0.004,0,-0.291512,0.286829,-9.91126,0.004,-1680,0.42369,-0.0624735,0.304066,-5773,-31.9157,34.25
40291758,-0.00039177,0.00101922,-0.0015735,0.004,0,-0.313211,0.272515,-10.1336,0.004,-5680,0.42369,-0.0624735,0.304066,-9773,-31.9157,34.25
40295758,-1.48888e-05,0.00201904,0.0134644,0.004,0,-0.373806,0.281325,-10.1238,0.004,-9680,0.42369,-0.0624735,0.304066,-13773,-31.9157,34.25
40299758,-0.00537536,-0.00217273,0.0291551,0.004,0,-0.436682,0.271372,-10.0276,0.004,-4476,0.427299,-0.0638277,0.302831,-17773,-31.9157,34.25
40303758,0.000496613,-0.00638225,0.0453887,0.004,0,-0.405513,0.29137,-10.0595,0.004,-8476,0.427299,-0.0638277,0.302831,-21773,-31.9157,34.25
40307758,-0.00451946,-0.00552076,0.0589212,0.004,0,-0.408874,0.229512,-10.038,0.004,-2543,0.428501,-0.0665361,0.302831,-25773,-31.9157,34.25
40311758,0.00339838,-0.00476738,0.0644968,0.004,0,-0.401237,0.183816,-10.0701,0.004,-6543,0.428501,-0.0665361,0.302831,-29773,-31.9157,34.25
40315771,-0.00223839,-0.00885777,0.0619559,0.004013,0,-0.330564,0.147053,-10.0424,0.004013,-10556,0.428501,-0.0665361,0.302831,-33786,-31.9157,34.25
40319757,-0.00612349,-0.0128912,0.0567394,0.003986,0,-0.31178,0.101657,-10.0158,0.003986,-5613,0.424893,-0.0638277,0.304066,-37772,-31.9157,34.25
40323758,0.00486426,-0.00891782,0.0467933,0.004001,0,-0.438762,0.0866813,-10.079,0.004001,-9614,0.424893,-0.0638277,0.304066,-41773,-31.9157,34.25
40327787,-0.00131384,-0.00697569,0.036021,0.004029,0,-0.470104,0.0583142,-10.0186,0.004029,-1829,0.422488,-0.0665361,0.30036,-45802,-31.9157,34.25
40331758,-0.00593155,-0.0117572,0.0243398,0.003971,0,-0.467434,-0.00933696,-10.0059,0.003971,-5800,0.422488,-0.0665361,0.30036,-49773,-31.9157,34.25
40335758,-0.00392675,-0.0060401,0.00901564,0.004,0,-0.463811,-0.0606156,-10.0756,0.004,-9800,0.422488,-0.0665361,0.30036,-528,-31.9987,34.26
40339758,-0.00161557,0.00290506,-0.00789954,0.004,0,-0.42795,-0.0835268,-10.045,0.004,-4428,0.421285,-0.0651819,0.304066,-4528,-31.9987,34.26
40343760,-0.00384823,-0.000834463,-0.0231154,0.004002,0,-0.415269,-0.0581211,-10.0138,0.004002,-8430,0.421285,-0.0651819,0.304066,-8530,-31.9987,34.26
40347774,-0.00712176,-0.00208353,-0.0344472,0.004014,0,-0.431984,-0.0265926,-10.1618,0.004014,-1765,0.424893,-0.0651819,0.304066,-12544,-31.9987,34.26
40351757,-0.00419457,0.00576777,-0.0425002,0.003983,0,-0.46129,0.0120846,-10.0521,0.003983,-5748,0.424893,-0.0651819,0.304066,-16527,-31.9987,34.26
40355758,-0.00230292,0.0041337,-0.0441777,0.004001,0,-0.500722,0.0986752,-9.99684,0.004001,-9749,0.424893,-0.0651819,0.304066,-20528,-31.9987,34.26
40359758,-0.00577743,0.00510528,-0.042153,0.004,0,-0.501399,0.0914423,-10.0715,0.004,-2961,0.421285,-0.0665361,0.302831,-24528,-31.9987,34.26
40363765,-0.00335377,0.0110013,-0.0404532,0.004007,0,-0.509696,0.110058,-10.0751,0.004007,-6968,0.421285,-0.0665361,0.302831,-2199,-31.8327,34.26
40367758,-0.0012786,0.0105769,-0.0343975,0.003993,0,-0.468313,0.19489,-10.0337,0.003993,-10961,0.421285,-0.0665361,0.302831,-6192,-31.8327,34.26
40371758,-0.0104635,0.00821228,-0.0225058,0.004,0,-0.409735,0.198531,-10.0199,0.004,-5317,0.424893,-0.0678904,0.304066,-10192,-31.8327,34.26
40375758,-0.000551103,0.00919661,-0.00904633,0.004,0,-0.413332,0.22866,-9.98172,0.004,-9317,0.424893,-0.0678904,0.304066,-14192,-31.8327,34.26
40379758,-0.00235234,0.0050628,0.003898,0.004,0,-0.445753,0.266156,-10.035,0.004,-2317,0.424893,-0.0624735,0.302831,-18192,-31.8327,34.26
40383804,-0.00430742,0.00162094,0.015172,0.004046,0,-0.452364,0.247742,-10.053,0.004046,-6363,0.424893,-0.0624735,0.302831,-22238,-31.8327,34.26
40387758,-0.000366129,0.00223566,0.0259234,0.003954,0,-0.509607,0.2118,-10.1479,0.003954,-10317,0.424893,-0.0624735,0.302831,-1320,-31.6668,34.26
40391758,-0.00170152,0.00216289,0.0341728,0.004,0,-0.466283,0.226568,-10.0227,0.004,-5140,0.42369,-0.0651819,0.304066,-5320,-31.6668,34.26
40395758,-0.00558663,-0.00131238,0.0431134,0.004,0,-0.419481,0.165942,-10.0628,0.004,-9140,0.42369,-0.0651819,0.304066,-9320,-31.6668,34.26
